%time,field.header.seq,field.header.stamp,field.header.frame_id,field.orientation.x,field.orientation.y,field.orientation.z,field.orientation.w,field.orientation_covariance0,field.orientation_covariance1,field.orientation_covariance2,field.orientation_covariance3,field.orientation_covariance4,field.orientation_covariance5,field.orientation_covariance6,field.orientation_covariance7,field.orientation_covariance8,field.angular_velocity.x,field.angular_velocity.y,field.angular_velocity.z,field.angular_velocity_covariance0,field.angular_velocity_covariance1,field.angular_velocity_covariance2,field.angular_velocity_covariance3,field.angular_velocity_covariance4,field.angular_velocity_covariance5,field.angular_velocity_covariance6,field.angular_velocity_covariance7,field.angular_velocity_covariance8,field.linear_acceleration.x,field.linear_acceleration.y,field.linear_acceleration.z,field.linear_acceleration_covariance0,field.linear_acceleration_covariance1,field.linear_acceleration_covariance2,field.linear_acceleration_covariance3,field.linear_acceleration_covariance4,field.linear_acceleration_covariance5,field.linear_acceleration_covariance6,field.linear_acceleration_covariance7,field.linear_acceleration_covariance8
1560476267733149728,10973,1560476267661896192,base_link,-0.00876399213639,-0.00351068348526,-0.591141813778,-0.806512420403,1.0,0.0,0.0,0.0,1.0,0.0,0.0,0.0,1.0,-9.43377672229e-05,-0.000227789103519,0.00106160435826,1.21846967915e-07,0.0,0.0,0.0,1.21846967915e-07,0.0,0.0,0.0,1.21846967915e-07,0.0575824566185,0.185121715069,9.80192184448,9e-08,0.0,0.0,0.0,9e-08,0.0,0.0,0.0,9e-08
1560476267733174508,10974,1560476267681896192,base_link,-0.00877292414019,-0.0035014709415,-0.591145554311,-0.806509691394,1.0,0.0,0.0,0.0,1.0,0.0,0.0,0.0,1.0,-0.000851906253956,-1.99382775463e-05,0.000112853129394,1.21846967915e-07,0.0,0.0,0.0,1.21846967915e-07,0.0,0.0,0.0,1.21846967915e-07,0.0558352954686,0.18850196898,9.81403541565,9e-08,0.0,0.0,0.0,9e-08,0.0,0.0,0.0,9e-08
1560476267733205442,10975,1560476267701896192,base_link,-0.00876232684196,-0.00351093422608,-0.591148810155,-0.806507362781,1.0,0.0,0.0,0.0,1.0,0.0,0.0,0.0,1.0,-0.001293922076,0.00114129146095,-0.00106539484113,1.21846967915e-07,0.0,0.0,0.0,1.21846967915e-07,0.0,0.0,0.0,1.21846967915e-07,0.0274551957846,0.178336307406,9.79697227478,9e-08,0.0,0.0,0.0,9e-08,0.0,0.0,0.0,9e-08
1560476267733260838,10976,1560476267721896192,base_link,-0.00875961495568,-0.0035124791715,-0.591152571761,-0.806504612699,1.0,0.0,0.0,0.0,1.0,0.0,0.0,0.0,1.0,5.50952972844e-06,-0.00044774019625,0.000634064548649,1.21846967915e-07,0.0,0.0,0.0,1.21846967915e-07,0.0,0.0,0.0,1.21846967915e-07,0.0581501424313,0.158974200487,9.81026935577,9e-08,0.0,0.0,0.0,9e-08,0.0,0.0,0.0,9e-08
1560476267744983779,10977,1560476267741894400,base_link,-0.00875996810017,-0.00350642961701,-0.59116074825,-0.806498543553,1.0,0.0,0.0,0.0,1.0,0.0,0.0,0.0,1.0,-0.000530798803084,-0.000548985146452,-4.94613777846e-06,1.21846967915e-07,0.0,0.0,0.0,1.21846967915e-07,0.0,0.0,0.0,1.21846967915e-07,0.0359380543232,0.19451059401,9.78153610229,9e-08,0.0,0.0,0.0,9e-08,0.0,0.0,0.0,9e-08
1560476267768424290,10978,1560476267765894400,base_link,-0.0087540922368,-0.00351137034718,-0.59116074825,-0.806498627847,1.0,0.0,0.0,0.0,1.0,0.0,0.0,0.0,1.0,-0.00276569765992,0.00136627280153,0.000241812726017,1.21846967915e-07,0.0,0.0,0.0,1.21846967915e-07,0.0,0.0,0.0,1.21846967915e-07,0.0619936287403,0.178067281842,9.80557918549,9e-08,0.0,0.0,0.0,9e-08,0.0,0.0,0.0,9e-08
1560476267784478168,10979,1560476267781894400,base_link,-0.00875441097234,-0.00351136244465,-0.591170916177,-0.806491157318,1.0,0.0,0.0,0.0,1.0,0.0,0.0,0.0,1.0,-5.97259349888e-05,-0.000856558559462,0.00361885549501,1.21846967915e-07,0.0,0.0,0.0,1.21846967915e-07,0.0,0.0,0.0,1.21846967915e-07,0.0626426935196,0.159301280975,9.79318714142,9e-08,0.0,0.0,0.0,9e-08,0.0,0.0,0.0,9e-08
1560476267808447890,10980,1560476267805894400,base_link,-0.00876442562331,-0.003504859153,-0.591177111763,-0.806486563311,1.0,0.0,0.0,0.0,1.0,0.0,0.0,0.0,1.0,-0.00019688080647,-0.00172018515877,0.00128506193869,1.21846967915e-07,0.0,0.0,0.0,1.21846967915e-07,0.0,0.0,0.0,1.21846967915e-07,0.102182909846,0.147498428822,9.83425712585,9e-08,0.0,0.0,0.0,9e-08,0.0,0.0,0.0,9e-08
1560476267824757629,10981,1560476267821894400,base_link,-0.00873821588117,-0.00351149563528,-0.591186710708,-0.806479830352,1.0,0.0,0.0,0.0,1.0,0.0,0.0,0.0,1.0,-0.00150764500722,0.00180458044633,1.35252485052e-05,1.21846967915e-07,0.0,0.0,0.0,1.21846967915e-07,0.0,0.0,0.0,1.21846967915e-07,0.0236697383225,0.208558470011,9.76482486725,9e-08,0.0,0.0,0.0,9e-08,0.0,0.0,0.0,9e-08
1560476267845628624,10982,1560476267841892608,base_link,-0.00875407577319,-0.00349772991479,-0.591184245118,-0.806481537299,1.0,0.0,0.0,0.0,1.0,0.0,0.0,0.0,1.0,0.00267351814546,-0.000126109574921,0.000917681434657,1.21846967915e-07,0.0,0.0,0.0,1.21846967915e-07,0.0,0.0,0.0,1.21846967915e-07,0.059341032058,0.162299484015,9.86276340485,9e-08,0.0,0.0,0.0,9e-08,0.0,0.0,0.0,9e-08
1560476267866254287,10983,1560476267861892608,base_link,-0.00875970056647,-0.00349911203508,-0.591185446303,-0.806480588995,1.0,0.0,0.0,0.0,1.0,0.0,0.0,0.0,1.0,0.00148159207311,0.000934285810217,0.000180553703103,1.21846967915e-07,0.0,0.0,0.0,1.21846967915e-07,0.0,0.0,0.0,1.21846967915e-07,0.119579076767,0.172846928239,9.79222106934,9e-08,0.0,0.0,0.0,9e-08,0.0,0.0,0.0,9e-08
1560476267886335029,10984,1560476267881892608,base_link,-0.00875816484067,-0.00349651736972,-0.591184656049,-0.806481126368,1.0,0.0,0.0,0.0,1.0,0.0,0.0,0.0,1.0,0.00019222163246,-0.00130294938572,-0.000200339884032,1.21846967915e-07,0.0,0.0,0.0,1.21846967915e-07,0.0,0.0,0.0,1.21846967915e-07,0.083826251328,0.141225934029,9.81492900848,9e-08,0.0,0.0,0.0,9e-08,0.0,0.0,0.0,9e-08
1560476267909262074,10985,1560476267905892608,base_link,-0.00876304679575,-0.00349239142374,-0.591189829575,-0.806477301541,1.0,0.0,0.0,0.0,1.0,0.0,0.0,0.0,1.0,0.00106062635314,-0.000980837387033,9.15567507036e-05,1.21846967915e-07,0.0,0.0,0.0,1.21846967915e-07,0.0,0.0,0.0,1.21846967915e-07,0.0731829479337,0.196834117174,9.80358505249,9e-08,0.0,0.0,0.0,9e-08,0.0,0.0,0.0,9e-08
1560476267926529208,10986,1560476267921892608,base_link,-0.00876296381914,-0.00348589949198,-0.591188343899,-0.806478365749,1.0,0.0,0.0,0.0,1.0,0.0,0.0,0.0,1.0,-0.00105887465179,-0.000980875920504,0.000659792916849,1.21846967915e-07,0.0,0.0,0.0,1.21846967915e-07,0.0,0.0,0.0,1.21846967915e-07,0.0623600296676,0.217821136117,9.77395057678,9e-08,0.0,0.0,0.0,9e-08,0.0,0.0,0.0,9e-08
1560476267944898105,10987,1560476267941888256,base_link,-0.00875935614769,-0.0034833352843,-0.591187237544,-0.806479219223,1.0,0.0,0.0,0.0,1.0,0.0,0.0,0.0,1.0,-0.000197083165403,-0.00108304596506,0.00107055506669,1.21846967915e-07,0.0,0.0,0.0,1.21846967915e-07,0.0,0.0,0.0,1.21846967915e-07,0.0545799098909,0.149920031428,9.83709907532,9e-08,0.0,0.0,0.0,9e-08,0.0,0.0,0.0,9e-08
1560476267965517327,10988,1560476267961888256,base_link,-0.00876599526415,-0.00347994674353,-0.591193749232,-0.806474477702,1.0,0.0,0.0,0.0,1.0,0.0,0.0,0.0,1.0,0.000967980013229,-0.000234273611568,0.000943592633121,1.21846967915e-07,0.0,0.0,0.0,1.21846967915e-07,0.0,0.0,0.0,1.21846967915e-07,0.0970732867718,0.171596676111,9.80290412903,9e-08,0.0,0.0,0.0,9e-08,0.0,0.0,0.0,9e-08
1560476267985576867,10989,1560476267982888256,base_link,-0.00878017504449,-0.0034849029495,-0.591193591181,-0.806474467166,1.0,0.0,0.0,0.0,1.0,0.0,0.0,0.0,1.0,0.000206282304134,0.00209757057019,-0.00012213177979,1.21846967915e-07,0.0,0.0,0.0,1.21846967915e-07,0.0,0.0,0.0,1.21846967915e-07,0.0615166686475,0.171869575977,9.85117912292,9e-08,0.0,0.0,0.0,9e-08,0.0,0.0,0.0,9e-08
1560476268006470346,10990,1560476268002888256,base_link,-0.0087537112688,-0.00348297687145,-0.591197310641,-0.806472012112,1.0,0.0,0.0,0.0,1.0,0.0,0.0,0.0,1.0,-0.00224232696928,0.000603546854109,-0.000502329086885,1.21846967915e-07,0.0,0.0,0.0,1.21846967915e-07,0.0,0.0,0.0,1.21846967915e-07,0.0627403631806,0.15858463943,9.73781108856,9e-08,0.0,0.0,0.0,9e-08,0.0,0.0,0.0,9e-08
1560476268025236250,10991,1560476268022888256,base_link,-0.00876797814166,-0.00348235108953,-0.591198954368,-0.806470705559,1.0,0.0,0.0,0.0,1.0,0.0,0.0,0.0,1.0,0.00287240860052,-0.000880527193658,-3.71385249309e-05,1.21846967915e-07,0.0,0.0,0.0,1.21846967915e-07,0.0,0.0,0.0,1.21846967915e-07,0.0348996520042,0.157575011253,9.86235618591,9e-08,0.0,0.0,0.0,9e-08,0.0,0.0,0.0,9e-08
1560476268046752287,10992,1560476268042886464,base_link,-0.00876693006808,-0.00349706527875,-0.591209807181,-0.806462634438,1.0,0.0,0.0,0.0,1.0,0.0,0.0,0.0,1.0,-0.000109069675091,0.00146072264761,-0.000543560658116,1.21846967915e-07,0.0,0.0,0.0,1.21846967915e-07,0.0,0.0,0.0,1.21846967915e-07,0.0418141297996,0.177767530084,9.80557537079,9e-08,0.0,0.0,0.0,9e-08,0.0,0.0,0.0,9e-08
1560476268065304457,10993,1560476268062886464,base_link,-0.00876189582458,-0.00349778605571,-0.591206941195,-0.806464826074,1.0,0.0,0.0,0.0,1.0,0.0,0.0,0.0,1.0,-0.000548568437807,-0.000677233561873,-0.000532011792529,1.21846967915e-07,0.0,0.0,0.0,1.21846967915e-07,0.0,0.0,0.0,1.21846967915e-07,0.0641618669033,0.153880745173,9.80856895447,9e-08,0.0,0.0,0.0,9e-08,0.0,0.0,0.0,9e-08
1560476268085950797,10994,1560476268082886464,base_link,-0.00876855403883,-0.00349409260884,-0.591218531579,-0.80645618597,1.0,0.0,0.0,0.0,1.0,0.0,0.0,0.0,1.0,0.000343046966009,0.000408193154726,0.00180123082828,1.21846967915e-07,0.0,0.0,0.0,1.21846967915e-07,0.0,0.0,0.0,1.21846967915e-07,0.0585029497743,0.174925297499,9.80782318115,9e-08,0.0,0.0,0.0,9e-08,0.0,0.0,0.0,9e-08
1560476268105437995,10995,1560476268102886464,base_link,-0.00875990998362,-0.00350533528068,-0.591226613237,-0.806450295948,1.0,0.0,0.0,0.0,1.0,0.0,0.0,0.0,1.0,-0.000859360501636,0.00135535746813,-0.000532330828719,1.21846967915e-07,0.0,0.0,0.0,1.21846967915e-07,0.0,0.0,0.0,1.21846967915e-07,0.0601706281304,0.221112757921,9.79181575775,9e-08,0.0,0.0,0.0,9e-08,0.0,0.0,0.0,9e-08
1560476268125681535,10996,1560476268122886464,base_link,-0.00874995048575,-0.00350767673568,-0.591224695555,-0.806451792161,1.0,0.0,0.0,0.0,1.0,0.0,0.0,0.0,1.0,-0.00170969218016,0.000284619745798,-0.00041208480252,1.21846967915e-07,0.0,0.0,0.0,1.21846967915e-07,0.0,0.0,0.0,1.21846967915e-07,0.0485458485782,0.142499729991,9.76812934875,9e-08,0.0,0.0,0.0,9e-08,0.0,0.0,0.0,9e-08
1560476268145432337,10997,1560476268142884416,base_link,-0.00876946480589,-0.00350051671051,-0.591226139085,-0.806450517219,1.0,0.0,0.0,0.0,1.0,0.0,0.0,0.0,1.0,0.000655720941722,-0.0024712937884,0.0013850836549,1.21846967915e-07,0.0,0.0,0.0,1.21846967915e-07,0.0,0.0,0.0,1.21846967915e-07,0.0357817858458,0.17349113524,9.82102298737,9e-08,0.0,0.0,0.0,9e-08,0.0,0.0,0.0,9e-08
1560476268166448776,10998,1560476268162884416,base_link,-0.00876976971199,-0.00350194772773,-0.591229700494,-0.806447967335,1.0,0.0,0.0,0.0,1.0,0.0,0.0,0.0,1.0,-0.000855145510286,0.00113918818533,-0.000207230419619,1.21846967915e-07,0.0,0.0,0.0,1.21846967915e-07,0.0,0.0,0.0,1.21846967915e-07,0.0375034436584,0.191552728415,9.81407165527,9e-08,0.0,0.0,0.0,9e-08,0.0,0.0,0.0,9e-08
1560476268185567554,10999,1560476268182884416,base_link,-0.00875872065224,-0.00350009985184,-0.59122967942,-0.806448072702,1.0,0.0,0.0,0.0,1.0,0.0,0.0,0.0,1.0,-0.000111902700155,-0.000884046836291,-0.00052804662846,1.21846967915e-07,0.0,0.0,0.0,1.21846967915e-07,0.0,0.0,0.0,1.21846967915e-07,0.0239398032427,0.177294999361,9.82948112488,9e-08,0.0,0.0,0.0,9e-08,0.0,0.0,0.0,9e-08
1560476268205718389,11000,1560476268202884416,base_link,-0.00876874896801,-0.00349485520338,-0.591237697858,-0.806442161606,1.0,0.0,0.0,0.0,1.0,0.0,0.0,0.0,1.0,-0.00116915814579,0.000186815625057,0.000118870812003,1.21846967915e-07,0.0,0.0,0.0,1.21846967915e-07,0.0,0.0,0.0,1.21846967915e-07,0.0502865538001,0.195072486997,9.83653450012,9e-08,0.0,0.0,0.0,9e-08,0.0,0.0,0.0,9e-08
1560476268225675372,11001,1560476268222884416,base_link,-0.00876435301878,-0.00349937891024,-0.59123884636,-0.806441265986,1.0,0.0,0.0,0.0,1.0,0.0,0.0,0.0,1.0,-0.00160830293316,7.08542647772e-05,-0.000727370206732,1.21846967915e-07,0.0,0.0,0.0,1.21846967915e-07,0.0,0.0,0.0,1.21846967915e-07,0.0318995155394,0.180080741644,9.81503295898,9e-08,0.0,0.0,0.0,9e-08,0.0,0.0,0.0,9e-08
1560476268246853309,11002,1560476268242882624,base_link,-0.00876377860333,-0.00349615747514,-0.591240437403,-0.806440264998,1.0,0.0,0.0,0.0,1.0,0.0,0.0,0.0,1.0,-0.000201635004487,-0.00119840959087,0.000757249945309,1.21846967915e-07,0.0,0.0,0.0,1.21846967915e-07,0.0,0.0,0.0,1.21846967915e-07,0.0162132680416,0.176386684179,9.8153591156,9e-08,0.0,0.0,0.0,9e-08,0.0,0.0,0.0,9e-08
1560476268266139138,11003,1560476268262882624,base_link,-0.00877683375429,-0.00349710956586,-0.591249983665,-0.806432994667,1.0,0.0,0.0,0.0,1.0,0.0,0.0,0.0,1.0,-0.000840061111376,-0.000556388986297,0.00107670202851,1.21846967915e-07,0.0,0.0,0.0,1.21846967915e-07,0.0,0.0,0.0,1.21846967915e-07,0.0471239835024,0.204360976815,9.81592845917,9e-08,0.0,0.0,0.0,9e-08,0.0,0.0,0.0,9e-08
1560476268286657752,11004,1560476268282882624,base_link,-0.00876903444705,-0.0034986500661,-0.591253871711,-0.806430286732,1.0,0.0,0.0,0.0,1.0,0.0,0.0,0.0,1.0,0.000626615365036,0.00273160636425,-0.000349679612555,1.21846967915e-07,0.0,0.0,0.0,1.21846967915e-07,0.0,0.0,0.0,1.21846967915e-07,0.0523958653212,0.154434919357,9.82903003693,9e-08,0.0,0.0,0.0,9e-08,0.0,0.0,0.0,9e-08
1560476268305399700,11005,1560476268302882624,base_link,-0.00876480675595,-0.00350139866624,-0.591257833515,-0.806427420746,1.0,0.0,0.0,0.0,1.0,0.0,0.0,0.0,1.0,-0.00114928535186,0.000191020604689,0.00160872761626,1.21846967915e-07,0.0,0.0,0.0,1.21846967915e-07,0.0,0.0,0.0,1.21846967915e-07,0.0282498039305,0.19531673193,9.79536724091,9e-08,0.0,0.0,0.0,9e-08,0.0,0.0,0.0,9e-08
1560476268326775649,11006,1560476268322882624,base_link,-0.00877025983374,-0.00349617344485,-0.591270108785,-0.806418348637,1.0,0.0,0.0,0.0,1.0,0.0,0.0,0.0,1.0,-0.000730722094886,0.000505919568241,0.00107032759115,1.21846967915e-07,0.0,0.0,0.0,1.21846967915e-07,0.0,0.0,0.0,1.21846967915e-07,0.048133648932,0.205375775695,9.82060623169,9e-08,0.0,0.0,0.0,9e-08,0.0,0.0,0.0,9e-08
1560476268345798691,11007,1560476268342880576,base_link,-0.00877433375471,-0.0034963905999,-0.591268707402,-0.806419328551,1.0,0.0,0.0,0.0,1.0,0.0,0.0,0.0,1.0,-0.000120599856018,0.000497854081914,-0.00106633466203,1.21846967915e-07,0.0,0.0,0.0,1.21846967915e-07,0.0,0.0,0.0,1.21846967915e-07,0.0621729977429,0.194502979517,9.84229660034,9e-08,0.0,0.0,0.0,9e-08,0.0,0.0,0.0,9e-08
1560476268366765916,11008,1560476268362880576,base_link,-0.00878207362831,-0.00349917558462,-0.591268665255,-0.806419286404,1.0,0.0,0.0,0.0,1.0,0.0,0.0,0.0,1.0,0.0022554656025,0.00146289123222,0.00123887322843,1.21846967915e-07,0.0,0.0,0.0,1.21846967915e-07,0.0,0.0,0.0,1.21846967915e-07,0.0503252148628,0.133054226637,9.80417346954,9e-08,0.0,0.0,0.0,9e-08,0.0,0.0,0.0,9e-08
1560476268385355757,11009,1560476268382880576,base_link,-0.00877969644727,-0.00349750271694,-0.59127278511,-0.806416262368,1.0,0.0,0.0,0.0,1.0,0.0,0.0,0.0,1.0,0.000652568414807,0.000718153605703,0.00105117366184,1.21846967915e-07,0.0,0.0,0.0,1.21846967915e-07,0.0,0.0,0.0,1.21846967915e-07,0.0562496595085,0.164321243763,9.78604602814,9e-08,0.0,0.0,0.0,9e-08,0.0,0.0,0.0,9e-08
1560476268405853740,11010,1560476268402880576,base_link,-0.00877927086288,-0.00350202708234,-0.591274344543,-0.806415208697,1.0,0.0,0.0,0.0,1.0,0.0,0.0,0.0,1.0,0.000940823694691,0.00166571396403,-0.00108588417061,1.21846967915e-07,0.0,0.0,0.0,1.21846967915e-07,0.0,0.0,0.0,1.21846967915e-07,0.0880970954895,0.196495011449,9.74666881561,9e-08,0.0,0.0,0.0,9e-08,0.0,0.0,0.0,9e-08
1560476268425480240,11011,1560476268422880576,base_link,-0.00877805206163,-0.0034954381799,-0.591274291859,-0.806415177087,1.0,0.0,0.0,0.0,1.0,0.0,0.0,0.0,1.0,0.000972831039689,-0.0017280196771,0.000850161537528,1.21846967915e-07,0.0,0.0,0.0,1.21846967915e-07,0.0,0.0,0.0,1.21846967915e-07,0.0722112357616,0.175115004182,9.84039211273,9e-08,0.0,0.0,0.0,9e-08,0.0,0.0,0.0,9e-08
1560476268445624621,11012,1560476268442878784,base_link,-0.00877855074446,-0.00350192533721,-0.59127364912,-0.806415651239,1.0,0.0,0.0,0.0,1.0,0.0,0.0,0.0,1.0,0.000637040531728,7.23033444956e-05,-0.000223908369662,1.21846967915e-07,0.0,0.0,0.0,1.21846967915e-07,0.0,0.0,0.0,1.21846967915e-07,0.0765934735537,0.163308441639,9.77384567261,9e-08,0.0,0.0,0.0,9e-08,0.0,0.0,0.0,9e-08
1560476268466041711,11013,1560476268462878784,base_link,-0.00877322822311,-0.00350550666689,-0.591275440361,-0.806414450053,1.0,0.0,0.0,0.0,1.0,0.0,0.0,0.0,1.0,0.000199277332285,0.00104061118327,-0.000652971910313,1.21846967915e-07,0.0,0.0,0.0,1.21846967915e-07,0.0,0.0,0.0,1.21846967915e-07,0.0411399826407,0.155672326684,9.74069309235,9e-08,0.0,0.0,0.0,9e-08,0.0,0.0,0.0,9e-08
1560476268485724792,11014,1560476268479878784,base_link,-0.00877775291779,-0.00350231618338,-0.591280476909,-0.806410762204,1.0,0.0,0.0,0.0,1.0,0.0,0.0,0.0,1.0,0.000170523533598,-0.000420978933107,0.00106300902553,1.21846967915e-07,0.0,0.0,0.0,1.21846967915e-07,0.0,0.0,0.0,1.21846967915e-07,0.0605748780072,0.140409588814,9.77442455292,9e-08,0.0,0.0,0.0,9e-08,0.0,0.0,0.0,9e-08
1560476268505052087,11015,1560476268499878784,base_link,-0.00877968377029,-0.00350018645044,-0.591282794986,-0.80640894989,1.0,0.0,0.0,0.0,1.0,0.0,0.0,0.0,1.0,-0.00063976488309,-0.00152382184751,-9.13209514692e-05,1.21846967915e-07,0.0,0.0,0.0,1.21846967915e-07,0.0,0.0,0.0,1.21846967915e-07,0.0785343050957,0.20392781496,9.81288051605,9e-08,0.0,0.0,0.0,9e-08,0.0,0.0,0.0,9e-08
1560476268528289081,11016,1560476268523876480,base_link,-0.00877297715302,-0.00350302346018,-0.591281699168,-0.80640987712,1.0,0.0,0.0,0.0,1.0,0.0,0.0,0.0,1.0,0.000425707403338,-0.000778628920671,-2.7347705327e-06,1.21846967915e-07,0.0,0.0,0.0,1.21846967915e-07,0.0,0.0,0.0,1.21846967915e-07,0.0400729179382,0.162607476115,9.82211589813,9e-08,0.0,0.0,0.0,9e-08,0.0,0.0,0.0,9e-08
1560476268544570550,11017,1560476268539876480,base_link,-0.00878125061231,-0.00349663343818,-0.591284312273,-0.806407769778,1.0,0.0,0.0,0.0,1.0,0.0,0.0,0.0,1.0,0.000309425842715,-0.00142128649168,-0.000743013224564,1.21846967915e-07,0.0,0.0,0.0,1.21846967915e-07,0.0,0.0,0.0,1.21846967915e-07,0.0531071834266,0.174392551184,9.79923820496,9e-08,0.0,0.0,0.0,9e-08,0.0,0.0,0.0,9e-08
1560476268567910507,11018,1560476268563876480,base_link,-0.00878447023641,-0.00349105359057,-0.591286546056,-0.806406126051,1.0,0.0,0.0,0.0,1.0,0.0,0.0,0.0,1.0,-0.000112069988973,6.9753092248e-05,-0.000424954894697,1.21846967915e-07,0.0,0.0,0.0,1.21846967915e-07,0.0,0.0,0.0,1.21846967915e-07,0.0831097215414,0.143179535866,9.83489513397,9e-08,0.0,0.0,0.0,9e-08,0.0,0.0,0.0,9e-08
1560476268587021016,11019,1560476268583876480,base_link,-0.00876596118447,-0.00348792945542,-0.591283511483,-0.806408654862,1.0,0.0,0.0,0.0,1.0,0.0,0.0,0.0,1.0,-0.000850500655361,-0.000353957584593,1.22426426969e-05,1.21846967915e-07,0.0,0.0,0.0,1.21846967915e-07,0.0,0.0,0.0,1.21846967915e-07,0.0569618418813,0.172020152211,9.80209350586,9e-08,0.0,0.0,0.0,9e-08,0.0,0.0,0.0,9e-08
1560476268606559648,11020,1560476268599876480,base_link,-0.00877498637231,-0.00348904321882,-0.591282552642,-0.806409192234,1.0,0.0,0.0,0.0,1.0,0.0,0.0,0.0,1.0,0.000202207098482,0.000601690495387,-0.000646902306471,1.21846967915e-07,0.0,0.0,0.0,1.21846967915e-07,0.0,0.0,0.0,1.21846967915e-07,0.0599701106548,0.163119345903,9.81276416779,9e-08,0.0,0.0,0.0,9e-08,0.0,0.0,0.0,9e-08
1560476268625839624,11021,1560476268619876480,base_link,-0.00876590339719,-0.00349378243437,-0.591288526957,-0.806404903792,1.0,0.0,0.0,0.0,1.0,0.0,0.0,0.0,1.0,-0.00106064369902,0.0011400480289,-9.35599091463e-05,1.21846967915e-07,0.0,0.0,0.0,1.21846967915e-07,0.0,0.0,0.0,1.21846967915e-07,0.0350762791932,0.154853999615,9.80405426025,9e-08,0.0,0.0,0.0,9e-08,0.0,0.0,0.0,9e-08
1560476268647442240,11022,1560476268643874176,base_link,-0.00876910540522,-0.00349423008,-0.591291645824,-0.806402543569,1.0,0.0,0.0,0.0,1.0,0.0,0.0,0.0,1.0,-0.000947592314333,-0.00194673729129,0.00087425892707,1.21846967915e-07,0.0,0.0,0.0,1.21846967915e-07,0.0,0.0,0.0,1.21846967915e-07,0.0619314722717,0.154943436384,9.82584953308,9e-08,0.0,0.0,0.0,9e-08,0.0,0.0,0.0,9e-08
1560476268664461146,11023,1560476268659874176,base_link,-0.0087755787331,-0.0034904936631,-0.591292573055,-0.806401869219,1.0,0.0,0.0,0.0,1.0,0.0,0.0,0.0,1.0,-0.00180429627653,0.000817441614345,0.000661044381559,1.21846967915e-07,0.0,0.0,0.0,1.21846967915e-07,0.0,0.0,0.0,1.21846967915e-07,0.041420314461,0.187444344163,9.7863035202,9e-08,0.0,0.0,0.0,9e-08,0.0,0.0,0.0,9e-08
1560476268685794848,11024,1560476268679874176,base_link,-0.00877772904555,-0.00348761236624,-0.591290950401,-0.806402986111,1.0,0.0,0.0,0.0,1.0,0.0,0.0,0.0,1.0,-0.000212016253499,0.000707158411387,0.00010604725685,1.21846967915e-07,0.0,0.0,0.0,1.21846967915e-07,0.0,0.0,0.0,1.21846967915e-07,0.0609479993582,0.181369364262,9.82757854462,9e-08,0.0,0.0,0.0,9e-08,0.0,0.0,0.0,9e-08
1560476268707089097,11025,1560476268703874176,base_link,-0.00877375440018,-0.00348665978161,-0.591293721557,-0.806401057892,1.0,0.0,0.0,0.0,1.0,0.0,0.0,0.0,1.0,0.00055753684137,-0.00130497128703,0.00180861772969,1.21846967915e-07,0.0,0.0,0.0,1.21846967915e-07,0.0,0.0,0.0,1.21846967915e-07,0.0270786508918,0.175568699837,9.78380775452,9e-08,0.0,0.0,0.0,9e-08,0.0,0.0,0.0,9e-08
1560476268725131265,11026,1560476268719874176,base_link,-0.00877533803508,-0.00349111499984,-0.591298947766,-0.806397180382,1.0,0.0,0.0,0.0,1.0,0.0,0.0,0.0,1.0,0.000552180223167,0.000712598091923,0.00137235480361,1.21846967915e-07,0.0,0.0,0.0,1.21846967915e-07,0.0,0.0,0.0,1.21846967915e-07,0.0560232512653,0.183304458857,9.81301307678,9e-08,0.0,0.0,0.0,9e-08,0.0,0.0,0.0,9e-08
1560476268746640712,11027,1560476268743871616,base_link,-0.00877320138742,-0.003494102487,-0.591304131828,-0.806393429313,1.0,0.0,0.0,0.0,1.0,0.0,0.0,0.0,1.0,-0.000629152287729,0.00070947734639,0.00106970546767,1.21846967915e-07,0.0,0.0,0.0,1.21846967915e-07,0.0,0.0,0.0,1.21846967915e-07,0.0639718994498,0.183246985078,9.82489299774,9e-08,0.0,0.0,0.0,9e-08,0.0,0.0,0.0,9e-08
1560476268767346407,11028,1560476268763871616,base_link,-0.0087808810042,-0.00348573271558,-0.591305185499,-0.806392544229,1.0,0.0,0.0,0.0,1.0,0.0,0.0,0.0,1.0,-0.000122843062854,-0.00184862327296,-0.000838863779791,1.21846967915e-07,0.0,0.0,0.0,1.21846967915e-07,0.0,0.0,0.0,1.21846967915e-07,0.0288484357297,0.187982171774,9.87663459778,9e-08,0.0,0.0,0.0,9e-08,0.0,0.0,0.0,9e-08
1560476268786997566,11029,1560476268783871616,base_link,-0.00878211709225,-0.00348396715775,-0.591304795641,-0.806392849794,1.0,0.0,0.0,0.0,1.0,0.0,0.0,0.0,1.0,-0.00118585908785,0.000381668913178,-0.00115608412307,1.21846967915e-07,0.0,0.0,0.0,1.21846967915e-07,0.0,0.0,0.0,1.21846967915e-07,0.0534693412483,0.187081843615,9.79709148407,9e-08,0.0,0.0,0.0,9e-08,0.0,0.0,0.0,9e-08
1560476268807218268,11030,1560476268803871616,base_link,-0.00877563108739,-0.00348498856029,-0.591298852935,-0.806397190919,1.0,0.0,0.0,0.0,1.0,0.0,0.0,0.0,1.0,0.000314743752824,0.00155657390133,-0.000330311595462,1.21846967915e-07,0.0,0.0,0.0,1.21846967915e-07,0.0,0.0,0.0,1.21846967915e-07,0.0577845536172,0.169462800026,9.78532409668,9e-08,0.0,0.0,0.0,9e-08,0.0,0.0,0.0,9e-08
1560476268827214501,11031,1560476268823868544,base_link,-0.00878185976598,-0.00347761664843,-0.591305786092,-0.806392112224,1.0,0.0,0.0,0.0,1.0,0.0,0.0,0.0,1.0,-8.20233981358e-05,-0.00120016955771,0.00181613047607,1.21846967915e-07,0.0,0.0,0.0,1.21846967915e-07,0.0,0.0,0.0,1.21846967915e-07,0.0404565669596,0.168662428856,9.82087612152,9e-08,0.0,0.0,0.0,9e-08,0.0,0.0,0.0,9e-08
1560476268847339720,11032,1560476268843868544,base_link,-0.008789753739,-0.00347510298404,-0.591312065972,-0.806387433923,1.0,0.0,0.0,0.0,1.0,0.0,0.0,0.0,1.0,-0.000950516725425,-0.00153031724039,0.000340484431945,1.21846967915e-07,0.0,0.0,0.0,1.21846967915e-07,0.0,0.0,0.0,1.21846967915e-07,0.027866024524,0.219836771488,9.80241298676,9e-08,0.0,0.0,0.0,9e-08,0.0,0.0,0.0,9e-08
1560476268867960628,11033,1560476268864868544,base_link,-0.00878400546862,-0.00347839224922,-0.59131217134,-0.80638741285,1.0,0.0,0.0,0.0,1.0,0.0,0.0,0.0,1.0,0.00157944287639,0.00080021424219,-0.000348492350895,1.21846967915e-07,0.0,0.0,0.0,1.21846967915e-07,0.0,0.0,0.0,1.21846967915e-07,0.00965382903814,0.183673501015,9.80414199829,9e-08,0.0,0.0,0.0,9e-08,0.0,0.0,0.0,9e-08
1560476268888342633,11034,1560476268884868544,base_link,-0.00878634824071,-0.00348042748102,-0.591318124582,-0.806383145482,1.0,0.0,0.0,0.0,1.0,0.0,0.0,0.0,1.0,-0.00189733691514,-3.3249729313e-05,0.00130406115204,1.21846967915e-07,0.0,0.0,0.0,1.21846967915e-07,0.0,0.0,0.0,1.21846967915e-07,0.0603753179312,0.199517950416,9.8141040802,9e-08,0.0,0.0,0.0,9e-08,0.0,0.0,0.0,9e-08
1560476268904229901,11035,1560476268900868544,base_link,-0.00879294208223,-0.00347772958881,-0.591318777858,-0.806382492205,1.0,0.0,0.0,0.0,1.0,0.0,0.0,0.0,1.0,0.000741243595257,0.000273207726423,-0.000545278075151,1.21846967915e-07,0.0,0.0,0.0,1.21846967915e-07,0.0,0.0,0.0,1.21846967915e-07,0.0464222170413,0.195312291384,9.83020496368,9e-08,0.0,0.0,0.0,9e-08,0.0,0.0,0.0,9e-08
1560476268928307160,11036,1560476268924865472,base_link,-0.00878897122349,-0.00347616340533,-0.591327491719,-0.806376138568,1.0,0.0,0.0,0.0,1.0,0.0,0.0,0.0,1.0,-0.000735639827326,0.000920880527701,0.000644531217404,1.21846967915e-07,0.0,0.0,0.0,1.21846967915e-07,0.0,0.0,0.0,1.21846967915e-07,0.0485616996884,0.176123961806,9.78341293335,9e-08,0.0,0.0,0.0,9e-08,0.0,0.0,0.0,9e-08
1560476268944565731,11037,1560476268940865472,base_link,-0.00878461610402,-0.00347073913886,-0.591329546378,-0.806374673965,1.0,0.0,0.0,0.0,1.0,0.0,0.0,0.0,1.0,-0.000103588448837,-3.89273627661e-05,0.000215892388951,1.21846967915e-07,0.0,0.0,0.0,1.21846967915e-07,0.0,0.0,0.0,1.21846967915e-07,0.0662241876125,0.168190091848,9.82212162018,9e-08,0.0,0.0,0.0,9e-08,0.0,0.0,0.0,9e-08
1560476268968028051,11038,1560476268964865472,base_link,-0.00877477465025,-0.0034619977837,-0.591335847332,-0.806370311766,1.0,0.0,0.0,0.0,1.0,0.0,0.0,0.0,1.0,-0.000954619084951,0.00155619508587,6.57379860058e-06,1.21846967915e-07,0.0,0.0,0.0,1.21846967915e-07,0.0,0.0,0.0,1.21846967915e-07,0.0844771116972,0.210425049067,9.79715442657,9e-08,0.0,0.0,0.0,9e-08,0.0,0.0,0.0,9e-08
1560476268984586325,11039,1560476268980865472,base_link,-0.00876820698588,-0.00346342484964,-0.591333718916,-0.806371850126,1.0,0.0,0.0,0.0,1.0,0.0,0.0,0.0,1.0,9.92541608866e-05,-0.000574559497181,-0.000529870914761,1.21846967915e-07,0.0,0.0,0.0,1.21846967915e-07,0.0,0.0,0.0,1.21846967915e-07,0.0409412682056,0.18801382184,9.78430557251,9e-08,0.0,0.0,0.0,9e-08,0.0,0.0,0.0,9e-08
1560476269005543216,11040,1560476269000865472,base_link,-0.00877559766625,-0.00345845893015,-0.591336658658,-0.806369584733,1.0,0.0,0.0,0.0,1.0,0.0,0.0,0.0,1.0,0.00127679482102,0.000172149855644,-1.6350124497e-05,1.21846967915e-07,0.0,0.0,0.0,1.21846967915e-07,0.0,0.0,0.0,1.21846967915e-07,0.0722235143185,0.222667127848,9.77146053314,9e-08,0.0,0.0,0.0,9e-08,0.0,0.0,0.0,9e-08
1560476269024921577,11041,1560476269020865472,base_link,-0.00876993303103,-0.00345826383634,-0.591337164421,-0.806369331852,1.0,0.0,0.0,0.0,1.0,0.0,0.0,0.0,1.0,0.000642435858026,6.90644956194e-05,0.000416998402216,1.21846967915e-07,0.0,0.0,0.0,1.21846967915e-07,0.0,0.0,0.0,1.21846967915e-07,0.060091022402,0.180674672127,9.75727653503,9e-08,0.0,0.0,0.0,9e-08,0.0,0.0,0.0,9e-08
1560476269045216570,11042,1560476269040863424,base_link,-0.00877961034258,-0.00346798988017,-0.591334688293,-0.806370965042,1.0,0.0,0.0,0.0,1.0,0.0,0.0,0.0,1.0,0.00138413615059,0.000383726437576,-1.79057824425e-05,1.21846967915e-07,0.0,0.0,0.0,1.21846967915e-07,0.0,0.0,0.0,1.21846967915e-07,0.0674718767405,0.169828742743,9.77715206146,9e-08,0.0,0.0,0.0,9e-08,0.0,0.0,0.0,9e-08
1560476269064664128,11043,1560476269060863424,base_link,-0.00878476921562,-0.00345682244704,-0.591347216444,-0.80636180864,1.0,0.0,0.0,0.0,1.0,0.0,0.0,0.0,1.0,0.0013017518213,-0.00237572309561,0.00159299117513,1.21846967915e-07,0.0,0.0,0.0,1.21846967915e-07,0.0,0.0,0.0,1.21846967915e-07,0.0523797795177,0.174228087068,9.78541278839,9e-08,0.0,0.0,0.0,9e-08,0.0,0.0,0.0,9e-08
1560476269085482414,11044,1560476269080863424,base_link,-0.00878673414779,-0.00345737842324,-0.591350366921,-0.8063595011,1.0,0.0,0.0,0.0,1.0,0.0,0.0,0.0,1.0,-0.0020089824684,-0.000250115292147,0.00109442905523,1.21846967915e-07,0.0,0.0,0.0,1.21846967915e-07,0.0,0.0,0.0,1.21846967915e-07,0.0522920787334,0.158594563603,9.81663131714,9e-08,0.0,0.0,0.0,9e-08,0.0,0.0,0.0,9e-08
1560476269104308606,11045,1560476269100863424,base_link,-0.00876922410787,-0.00345824704345,-0.591353854573,-0.80635719356,1.0,0.0,0.0,0.0,1.0,0.0,0.0,0.0,1.0,-0.00115848891437,-0.000803568575066,0.000121419667266,1.21846967915e-07,0.0,0.0,0.0,1.21846967915e-07,0.0,0.0,0.0,1.21846967915e-07,0.06382714957,0.164502084255,9.75103092194,9e-08,0.0,0.0,0.0,9e-08,0.0,0.0,0.0,9e-08
1560476269123885753,11046,1560476269120863424,base_link,-0.00876595212948,-0.00345077816091,-0.591354223358,-0.806356993362,1.0,0.0,0.0,0.0,1.0,0.0,0.0,0.0,1.0,-0.00140305899549,0.000275786675047,-0.00125376344658,1.21846967915e-07,0.0,0.0,0.0,1.21846967915e-07,0.0,0.0,0.0,1.21846967915e-07,0.0484046973288,0.184428304434,9.84660243988,9e-08,0.0,0.0,0.0,9e-08,0.0,0.0,0.0,9e-08
1560476269146224373,11047,1560476269140860096,base_link,-0.00876453576488,-0.00345015172045,-0.591357026123,-0.80635494924,1.0,0.0,0.0,0.0,1.0,0.0,0.0,0.0,1.0,0.000538918888196,0.00112575595267,0.00104704126716,1.21846967915e-07,0.0,0.0,0.0,1.21846967915e-07,0.0,0.0,0.0,1.21846967915e-07,0.0573690161109,0.171420872211,9.80503940582,9e-08,0.0,0.0,0.0,9e-08,0.0,0.0,0.0,9e-08
1560476269167607759,11048,1560476269164860096,base_link,-0.00877046513499,-0.00344449367067,-0.591358511799,-0.806353800738,1.0,0.0,0.0,0.0,1.0,0.0,0.0,0.0,1.0,0.000963061233051,-0.000573144177906,0.000412081833929,1.21846967915e-07,0.0,0.0,0.0,1.21846967915e-07,0.0,0.0,0.0,1.21846967915e-07,0.0606644526124,0.167620122433,9.80507850647,9e-08,0.0,0.0,0.0,9e-08,0.0,0.0,0.0,9e-08
1560476269185653340,11049,1560476269180860096,base_link,-0.00877014425918,-0.00345228375829,-0.591364644166,-0.806349269952,1.0,0.0,0.0,0.0,1.0,0.0,0.0,0.0,1.0,-0.00118818855844,0.00239474978298,-0.00158393452875,1.21846967915e-07,0.0,0.0,0.0,1.21846967915e-07,0.0,0.0,0.0,1.21846967915e-07,0.030280912295,0.182639956474,9.83233070374,9e-08,0.0,0.0,0.0,9e-08,0.0,0.0,0.0,9e-08
1560476269208149750,11050,1560476269200860096,base_link,-0.00876738298206,-0.00346495349608,-0.591365286905,-0.806348711506,1.0,0.0,0.0,0.0,1.0,0.0,0.0,0.0,1.0,0.000846553593874,0.00144004879985,-1.76468747668e-05,1.21846967915e-07,0.0,0.0,0.0,1.21846967915e-07,0.0,0.0,0.0,1.21846967915e-07,0.0510654225945,0.199166327715,9.81728553772,9e-08,0.0,0.0,0.0,9e-08,0.0,0.0,0.0,9e-08
1560476269224183220,11051,1560476269220860096,base_link,-0.00876525621257,-0.00347754190363,-0.591372652067,-0.806343369393,1.0,0.0,0.0,0.0,1.0,0.0,0.0,0.0,1.0,0.000874852703419,0.00177142163739,0.00179167673923,1.21846967915e-07,0.0,0.0,0.0,1.21846967915e-07,0.0,0.0,0.0,1.21846967915e-07,0.0389097929001,0.152958258986,9.81175518036,9e-08,0.0,0.0,0.0,9e-08,0.0,0.0,0.0,9e-08
1560476269246140870,11052,1560476269240858304,base_link,-0.00876953247133,-0.00348169369748,-0.591375897374,-0.806340882729,1.0,0.0,0.0,0.0,1.0,0.0,0.0,0.0,1.0,0.00105729256757,6.25134562142e-05,-0.000756765482947,1.21846967915e-07,0.0,0.0,0.0,1.21846967915e-07,0.0,0.0,0.0,1.21846967915e-07,0.045770406723,0.200521290302,9.8194732666,9e-08,0.0,0.0,0.0,9e-08,0.0,0.0,0.0,9e-08
1560476269265347428,11053,1560476269260858304,base_link,-0.00876216187657,-0.00348258026302,-0.591375539126,-0.806341240978,1.0,0.0,0.0,0.0,1.0,0.0,0.0,0.0,1.0,-0.00170530471951,0.00176399177872,-0.000196051347302,1.21846967915e-07,0.0,0.0,0.0,1.21846967915e-07,0.0,0.0,0.0,1.21846967915e-07,0.0577116347849,0.179983258247,9.78814411163,9e-08,0.0,0.0,0.0,9e-08,0.0,0.0,0.0,9e-08
1560476269288050139,11054,1560476269280858304,base_link,-0.00876702967293,-0.00349131141074,-0.591380533528,-0.806337510981,1.0,0.0,0.0,0.0,1.0,0.0,0.0,0.0,1.0,0.00179659575224,0.000488603312988,-0.000647546083201,1.21846967915e-07,0.0,0.0,0.0,1.21846967915e-07,0.0,0.0,0.0,1.21846967915e-07,0.0375419929624,0.20269048214,9.77056503296,9e-08,0.0,0.0,0.0,9e-08,0.0,0.0,0.0,9e-08
1560476269304048164,11055,1560476269300858304,base_link,-0.00877519562483,-0.00348826366676,-0.591380912849,-0.80633713166,1.0,0.0,0.0,0.0,1.0,0.0,0.0,0.0,1.0,-0.000107085215859,-0.00014833471505,4.77803405374e-06,1.21846967915e-07,0.0,0.0,0.0,1.21846967915e-07,0.0,0.0,0.0,1.21846967915e-07,0.0467375069857,0.180108815432,9.82469844818,9e-08,0.0,0.0,0.0,9e-08,0.0,0.0,0.0,9e-08
1560476269325520781,11056,1560476269320858304,base_link,-0.00875721291459,-0.00348956807879,-0.59138251443,-0.806336120135,1.0,0.0,0.0,0.0,1.0,0.0,0.0,0.0,1.0,-0.00138268328737,0.00134729337879,0.000338215206284,1.21846967915e-07,0.0,0.0,0.0,1.21846967915e-07,0.0,0.0,0.0,1.21846967915e-07,0.0389919802547,0.195543915033,9.77616882324,9e-08,0.0,0.0,0.0,9e-08,0.0,0.0,0.0,9e-08
1560476269344364830,11057,1560476269340856256,base_link,-0.00876342792838,-0.00347406100199,-0.591382735701,-0.806335898864,1.0,0.0,0.0,0.0,1.0,0.0,0.0,0.0,1.0,-0.00180967431515,-0.00259925657883,3.92303918488e-05,1.21846967915e-07,0.0,0.0,0.0,1.21846967915e-07,0.0,0.0,0.0,1.21846967915e-07,0.0418982431293,0.174390971661,9.81675624847,9e-08,0.0,0.0,0.0,9e-08,0.0,0.0,0.0,9e-08
1560476269366525465,11058,1560476269362856256,base_link,-0.00876903444705,-0.00347444592126,-0.591383515417,-0.806335372029,1.0,0.0,0.0,0.0,1.0,0.0,0.0,0.0,1.0,0.000210228114156,0.000381222111173,-0.000215280713746,1.21846967915e-07,0.0,0.0,0.0,1.21846967915e-07,0.0,0.0,0.0,1.21846967915e-07,0.0357208587229,0.156759649515,9.81368160248,9e-08,0.0,0.0,0.0,9e-08,0.0,0.0,0.0,9e-08
1560476269385706386,11059,1560476269382856256,base_link,-0.00875064986002,-0.00348295365776,-0.591386170669,-0.806333559714,1.0,0.0,0.0,0.0,1.0,0.0,0.0,0.0,1.0,-0.000521253910847,0.00262118712999,0.0009520034655,1.21846967915e-07,0.0,0.0,0.0,1.21846967915e-07,0.0,0.0,0.0,1.21846967915e-07,0.0658128485084,0.195788025856,9.78762340546,9e-08,0.0,0.0,0.0,9e-08,0.0,0.0,0.0,9e-08
1560476269405602173,11060,1560476269402856256,base_link,-0.00875140800939,-0.00348694098012,-0.591383705078,-0.806335350955,1.0,0.0,0.0,0.0,1.0,0.0,0.0,0.0,1.0,0.000638556433842,-4.24389145337e-05,0.000102725927718,1.21846967915e-07,0.0,0.0,0.0,1.21846967915e-07,0.0,0.0,0.0,1.21846967915e-07,0.0798313394189,0.174147814512,9.83891487122,9e-08,0.0,0.0,0.0,9e-08,0.0,0.0,0.0,9e-08
1560476269425227942,11061,1560476269422856256,base_link,-0.00875860820576,-0.00348235520543,-0.591388688943,-0.806331631496,1.0,0.0,0.0,0.0,1.0,0.0,0.0,0.0,1.0,-0.000933505652938,-0.00164120586123,2.30565201491e-05,1.21846967915e-07,0.0,0.0,0.0,1.21846967915e-07,0.0,0.0,0.0,1.21846967915e-07,0.0665906146169,0.183218300343,9.80975151062,9e-08,0.0,0.0,0.0,9e-08,0.0,0.0,0.0,9e-08
1560476269446853205,11062,1560476269442854464,base_link,-0.00875160343247,-0.00348614759862,-0.591388688943,-0.806331631496,1.0,0.0,0.0,0.0,1.0,0.0,0.0,0.0,1.0,0.000532444333658,0.00176346558146,-1.30510888994e-05,1.21846967915e-07,0.0,0.0,0.0,1.21846967915e-07,0.0,0.0,0.0,1.21846967915e-07,0.0548335984349,0.145907759666,9.82091999054,9e-08,0.0,0.0,0.0,9e-08,0.0,0.0,0.0,9e-08
1560476269465547975,11063,1560476269462854464,base_link,-0.0087545793951,-0.00348006725718,-0.591393894079,-0.806327859353,1.0,0.0,0.0,0.0,1.0,0.0,0.0,0.0,1.0,0.000438184273662,-0.000580720894504,0.000632850860711,1.21846967915e-07,0.0,0.0,0.0,1.21846967915e-07,0.0,0.0,0.0,1.21846967915e-07,0.0772574990988,0.187099695206,9.81725215912,9e-08,0.0,0.0,0.0,9e-08,0.0,0.0,0.0,9e-08
1560476269486333681,11064,1560476269482854464,base_link,-0.0087600342839,-0.00347664990509,-0.591397813736,-0.806324951221,1.0,0.0,0.0,0.0,1.0,0.0,0.0,0.0,1.0,-0.00105439673644,0.000596872763708,0.000762103358284,1.21846967915e-07,0.0,0.0,0.0,1.21846967915e-07,0.0,0.0,0.0,1.21846967915e-07,0.0650650113821,0.177130848169,9.79886436462,9e-08,0.0,0.0,0.0,9e-08,0.0,0.0,0.0,9e-08
1560476269505665631,11065,1560476269502854464,base_link,-0.00874191426712,-0.00348257894593,-0.591399162435,-0.806324108284,1.0,0.0,0.0,0.0,1.0,0.0,0.0,0.0,1.0,-0.00128352548927,-0.000677548290696,0.000444028468337,1.21846967915e-07,0.0,0.0,0.0,1.21846967915e-07,0.0,0.0,0.0,1.21846967915e-07,0.0198030211031,0.180965125561,9.80320453644,9e-08,0.0,0.0,0.0,9e-08,0.0,0.0,0.0,9e-08
1560476269526972405,11066,1560476269522852416,base_link,-0.00875337623428,-0.00347673831469,-0.591406148275,-0.806318892611,1.0,0.0,0.0,0.0,1.0,0.0,0.0,0.0,1.0,7.47534795664e-06,-0.0015277385246,0.00075459596701,1.21846967915e-07,0.0,0.0,0.0,1.21846967915e-07,0.0,0.0,0.0,1.21846967915e-07,0.0375567674637,0.169539645314,9.83020305634,9e-08,0.0,0.0,0.0,9e-08,0.0,0.0,0.0,9e-08
1560476269545243817,11067,1560476269542852416,base_link,-0.00875321867751,-0.00348272925872,-0.591413102505,-0.806313792842,1.0,0.0,0.0,0.0,1.0,0.0,0.0,0.0,1.0,-9.31214453885e-05,0.0024080844596,0.00116531224921,1.21846967915e-07,0.0,0.0,0.0,1.21846967915e-07,0.0,0.0,0.0,1.21846967915e-07,0.0539999231696,0.210360437632,9.81758022308,9e-08,0.0,0.0,0.0,9e-08,0.0,0.0,0.0,9e-08
1560476269565649170,11068,1560476269562852416,base_link,-0.00874466270263,-0.00348373963063,-0.591409235532,-0.806316732585,1.0,0.0,0.0,0.0,1.0,0.0,0.0,0.0,1.0,0.00107345008291,-4.17834962718e-05,0.000304980960209,1.21846967915e-07,0.0,0.0,0.0,1.21846967915e-07,0.0,0.0,0.0,1.21846967915e-07,0.0825698673725,0.12208878994,9.77774333954,9e-08,0.0,0.0,0.0,9e-08,0.0,0.0,0.0,9e-08
1560476269585245104,11069,1560476269582852416,base_link,-0.00876277695714,-0.00347551012918,-0.591411437704,-0.806314867587,1.0,0.0,0.0,0.0,1.0,0.0,0.0,0.0,1.0,0.000958715914749,-0.00186117715202,-1.2848933693e-05,1.21846967915e-07,0.0,0.0,0.0,1.21846967915e-07,0.0,0.0,0.0,1.21846967915e-07,0.067877009511,0.203015804291,9.78055667877,9e-08,0.0,0.0,0.0,9e-08,0.0,0.0,0.0,9e-08
1560476269605572444,11070,1560476269602852416,base_link,-0.00875203214494,-0.00347748576271,-0.591413239482,-0.806313740159,1.0,0.0,0.0,0.0,1.0,0.0,0.0,0.0,1.0,-0.000950805027969,0.0018701935187,4.98088775203e-06,1.21846967915e-07,0.0,0.0,0.0,1.21846967915e-07,0.0,0.0,0.0,1.21846967915e-07,0.0634600818157,0.182719260454,9.77459716797,9e-08,0.0,0.0,0.0,9e-08,0.0,0.0,0.0,9e-08
1560476269624890982,11071,1560476269622852416,base_link,-0.0087405789035,-0.00348398543236,-0.59141664284,-0.806311179738,1.0,0.0,0.0,0.0,1.0,0.0,0.0,0.0,1.0,0.00245373207144,-0.000141997821629,0.000618290621787,1.21846967915e-07,0.0,0.0,0.0,1.21846967915e-07,0.0,0.0,0.0,1.21846967915e-07,0.0720203220844,0.172942832112,9.81448745728,9e-08,0.0,0.0,0.0,9e-08,0.0,0.0,0.0,9e-08
1560476269645649190,11072,1560476269642850368,base_link,-0.00875451699801,-0.00348345003568,-0.591429381725,-0.806301728307,1.0,0.0,0.0,0.0,1.0,0.0,0.0,0.0,1.0,0.000449756364105,-0.000568324350752,0.0020196554251,1.21846967915e-07,0.0,0.0,0.0,1.21846967915e-07,0.0,0.0,0.0,1.21846967915e-07,0.0546153858304,0.173450469971,9.86122512817,9e-08,0.0,0.0,0.0,9e-08,0.0,0.0,0.0,9e-08
1560476269665566115,11073,1560476269662850368,base_link,-0.00874963701857,-0.00347996781696,-0.591436093611,-0.806296955176,1.0,0.0,0.0,0.0,1.0,0.0,0.0,0.0,1.0,-0.00319823506288,0.000694126356393,-0.000379524310119,1.21846967915e-07,0.0,0.0,0.0,1.21846967915e-07,0.0,0.0,0.0,1.21846967915e-07,0.0610120035708,0.180665105581,9.79707431793,9e-08,0.0,0.0,0.0,9e-08,0.0,0.0,0.0,9e-08
1560476269686441002,11074,1560476269682850368,base_link,-0.00874459898845,-0.00347640920707,-0.591443311259,-0.806291676284,1.0,0.0,0.0,0.0,1.0,0.0,0.0,0.0,1.0,-9.1863272246e-05,-0.00078514701454,0.00128352537286,1.21846967915e-07,0.0,0.0,0.0,1.21846967915e-07,0.0,0.0,0.0,1.21846967915e-07,0.0682539641857,0.155803740025,9.84860706329,9e-08,0.0,0.0,0.0,9e-08,0.0,0.0,0.0,9e-08
1560476269705747519,11075,1560476269702850368,base_link,-0.00875029194108,-0.0034696059484,-0.591448189756,-0.806288146485,1.0,0.0,0.0,0.0,1.0,0.0,0.0,0.0,1.0,-0.00136864872184,-0.000787235214375,0.00098239001818,1.21846967915e-07,0.0,0.0,0.0,1.21846967915e-07,0.0,0.0,0.0,1.21846967915e-07,0.0604501515627,0.202826485038,9.83365631104,9e-08,0.0,0.0,0.0,9e-08,0.0,0.0,0.0,9e-08
1560476269724576142,11076,1560476269718850368,base_link,-0.00874411792168,-0.00347147176962,-0.591445818996,-0.806289927189,1.0,0.0,0.0,0.0,1.0,0.0,0.0,0.0,1.0,-0.00151290022768,0.00133012095466,-0.00147166592069,1.21846967915e-07,0.0,0.0,0.0,1.21846967915e-07,0.0,0.0,0.0,1.21846967915e-07,0.0410790666938,0.199691280723,9.77643871307,9e-08,0.0,0.0,0.0,9e-08,0.0,0.0,0.0,9e-08
1560476269746880735,11077,1560476269743846784,base_link,-0.0087366501916,-0.00346615188245,-0.591448094926,-0.806288325609,1.0,0.0,0.0,0.0,1.0,0.0,0.0,0.0,1.0,0.00063579226844,-0.00143292220309,0.000109224522021,1.21846967915e-07,0.0,0.0,0.0,1.21846967915e-07,0.0,0.0,0.0,1.21846967915e-07,0.0819737836719,0.178565502167,9.83515644073,9e-08,0.0,0.0,0.0,9e-08,0.0,0.0,0.0,9e-08
1560476269766796833,11078,1560476269763846784,base_link,-0.00874890323535,-0.00346691036109,-0.59145282591,-0.806284774737,1.0,0.0,0.0,0.0,1.0,0.0,0.0,0.0,1.0,-1.65778910741e-05,-0.000260011060163,-0.000955807743594,1.21846967915e-07,0.0,0.0,0.0,1.21846967915e-07,0.0,0.0,0.0,1.21846967915e-07,0.0869441181421,0.190124034882,9.78067493439,9e-08,0.0,0.0,0.0,9e-08,0.0,0.0,0.0,9e-08
1560476269786356439,11079,1560476269783846784,base_link,-0.00874324419776,-0.0034664159588,-0.591448716592,-0.806287788237,1.0,0.0,0.0,0.0,1.0,0.0,0.0,0.0,1.0,-0.0012805017177,0.000271724362392,-8.86018387973e-05,1.21846967915e-07,0.0,0.0,0.0,1.21846967915e-07,0.0,0.0,0.0,1.21846967915e-07,0.0344096124172,0.179370075464,9.81053638458,9e-08,0.0,0.0,0.0,9e-08,0.0,0.0,0.0,9e-08
1560476269806620536,11080,1560476269803846784,base_link,-0.00873635022457,-0.0034703583355,-0.591453331672,-0.806284521856,1.0,0.0,0.0,0.0,1.0,0.0,0.0,0.0,1.0,0.000855477410369,0.000587484391872,0.000835447164718,1.21846967915e-07,0.0,0.0,0.0,1.21846967915e-07,0.0,0.0,0.0,1.21846967915e-07,0.0440455749631,0.20173728466,9.82294178009,9e-08,0.0,0.0,0.0,9e-08,0.0,0.0,0.0,9e-08
1560476269825751307,11081,1560476269823846784,base_link,-0.00874396250518,-0.00347236343889,-0.591453500259,-0.806284353269,1.0,0.0,0.0,0.0,1.0,0.0,0.0,0.0,1.0,0.00063089421019,0.000382436235668,-0.000434033427155,1.21846967915e-07,0.0,0.0,0.0,1.21846967915e-07,0.0,0.0,0.0,1.21846967915e-07,0.0616981312633,0.191018640995,9.85325622559,9e-08,0.0,0.0,0.0,9e-08,0.0,0.0,0.0,9e-08
1560476269846137807,11082,1560476269843844992,base_link,-0.00873481614514,-0.00348424144154,-0.591453268452,-0.806284585076,1.0,0.0,0.0,0.0,1.0,0.0,0.0,0.0,1.0,0.000635605538264,0.00121906737331,-0.000323802203638,1.21846967915e-07,0.0,0.0,0.0,1.21846967915e-07,0.0,0.0,0.0,1.21846967915e-07,0.030682919547,0.13688775897,9.7945356369,9e-08,0.0,0.0,0.0,9e-08,0.0,0.0,0.0,9e-08
1560476269866629128,11083,1560476269863844992,base_link,-0.00875260260912,-0.00348024358247,-0.591453184158,-0.806284332195,1.0,0.0,0.0,0.0,1.0,0.0,0.0,0.0,1.0,0.00138863455504,-0.000684261787683,0.000625033397228,1.21846967915e-07,0.0,0.0,0.0,1.21846967915e-07,0.0,0.0,0.0,1.21846967915e-07,0.0525301396847,0.184796243906,9.84800624847,9e-08,0.0,0.0,0.0,9e-08,0.0,0.0,0.0,9e-08
1560476269887152053,11084,1560476269883844992,base_link,-0.00874714146415,-0.00348713376902,-0.591453953338,-0.806283815896,1.0,0.0,0.0,0.0,1.0,0.0,0.0,0.0,1.0,-0.00160600361414,0.00282234582119,-0.000523578957655,1.21846967915e-07,0.0,0.0,0.0,1.21846967915e-07,0.0,0.0,0.0,1.21846967915e-07,0.0391327999532,0.188910067081,9.80705928802,9e-08,0.0,0.0,0.0,9e-08,0.0,0.0,0.0,9e-08
1560476269906075359,11085,1560476269903844992,base_link,-0.00873349049505,-0.00348932738078,-0.591452014583,-0.806285333183,1.0,0.0,0.0,0.0,1.0,0.0,0.0,0.0,1.0,0.000621351820882,0.00132516026497,-0.00118763896171,1.21846967915e-07,0.0,0.0,0.0,1.21846967915e-07,0.0,0.0,0.0,1.21846967915e-07,0.0404718704522,0.159318044782,9.80309104919,9e-08,0.0,0.0,0.0,9e-08,0.0,0.0,0.0,9e-08
1560476269926475616,11086,1560476269923844992,base_link,-0.00873838957228,-0.00349077930678,-0.59145587102,-0.806282403977,1.0,0.0,0.0,0.0,1.0,0.0,0.0,0.0,1.0,-0.000210015103221,0.000698367366567,0.000746884034015,1.21846967915e-07,0.0,0.0,0.0,1.21846967915e-07,0.0,0.0,0.0,1.21846967915e-07,0.0745275020599,0.198607474566,9.84692573547,9e-08,0.0,0.0,0.0,9e-08,0.0,0.0,0.0,9e-08
1560476269946632345,11087,1560476269943842944,base_link,-0.00873716369168,-0.00348267492879,-0.591459885507,-0.806279653895,1.0,0.0,0.0,0.0,1.0,0.0,0.0,0.0,1.0,-0.000521710782778,0.000903711013962,0.000859054096509,1.21846967915e-07,0.0,0.0,0.0,1.21846967915e-07,0.0,0.0,0.0,1.21846967915e-07,0.0407132506371,0.15469583869,9.81809425354,9e-08,0.0,0.0,0.0,9e-08,0.0,0.0,0.0,9e-08
1560476269966910755,11088,1560476269963842944,base_link,-0.00872296761236,-0.00348175741166,-0.591464047508,-0.806276756299,1.0,0.0,0.0,0.0,1.0,0.0,0.0,0.0,1.0,0.0015049824724,-4.41956799477e-05,0.00147620239295,1.21846967915e-07,0.0,0.0,0.0,1.21846967915e-07,0.0,0.0,0.0,1.21846967915e-07,0.0632864832878,0.189331620932,9.82825279236,9e-08,0.0,0.0,0.0,9e-08,0.0,0.0,0.0,9e-08
1560476269986663266,11089,1560476269983842944,base_link,-0.00872713455273,-0.00348501885333,-0.591470485439,-0.806271835655,1.0,0.0,0.0,0.0,1.0,0.0,0.0,0.0,1.0,0.000973047805019,-0.000682451645844,0.00137667322997,1.21846967915e-07,0.0,0.0,0.0,1.21846967915e-07,0.0,0.0,0.0,1.21846967915e-07,0.0915235057473,0.200228989124,9.80945682526,9e-08,0.0,0.0,0.0,9e-08,0.0,0.0,0.0,9e-08
1560476270007425683,11090,1560476270003842944,base_link,-0.00872312434595,-0.00347994378008,-0.591471423207,-0.806271235062,1.0,0.0,0.0,0.0,1.0,0.0,0.0,0.0,1.0,-0.00106147211045,0.00197361339815,0.000325228611473,1.21846967915e-07,0.0,0.0,0.0,1.21846967915e-07,0.0,0.0,0.0,1.21846967915e-07,0.0592608265579,0.153363764286,9.85604572296,9e-08,0.0,0.0,0.0,9e-08,0.0,0.0,0.0,9e-08
1560476270025876259,11091,1560476270023842944,base_link,-0.00870784973536,-0.0034797346922,-0.591473372498,-0.80626996012,1.0,0.0,0.0,0.0,1.0,0.0,0.0,0.0,1.0,0.00150048034266,-0.000153957866132,0.000941638427321,1.21846967915e-07,0.0,0.0,0.0,1.21846967915e-07,0.0,0.0,0.0,1.21846967915e-07,0.0879691466689,0.133996650577,9.79392814636,9e-08,0.0,0.0,0.0,9e-08,0.0,0.0,0.0,9e-08
1560476270046474242,11092,1560476270043840896,base_link,-0.00872096596632,-0.00348056379974,-0.591478092945,-0.806266419785,1.0,0.0,0.0,0.0,1.0,0.0,0.0,0.0,1.0,0.000970038876403,-0.000258968037087,0.00116457906552,1.21846967915e-07,0.0,0.0,0.0,1.21846967915e-07,0.0,0.0,0.0,1.21846967915e-07,0.0683832317591,0.197093471885,9.85742473602,9e-08,0.0,0.0,0.0,9e-08,0.0,0.0,0.0,9e-08
1560476270066482849,11093,1560476270063840896,base_link,-0.00872392694707,-0.00348107334855,-0.591480094921,-0.806264923572,1.0,0.0,0.0,0.0,1.0,0.0,0.0,0.0,1.0,0.000519764260389,-0.000481687835418,-0.000746602541767,1.21846967915e-07,0.0,0.0,0.0,1.21846967915e-07,0.0,0.0,0.0,1.21846967915e-07,0.0696377009153,0.185789883137,9.77592277527,9e-08,0.0,0.0,0.0,9e-08,0.0,0.0,0.0,9e-08
1560476270086640205,11094,1560476270083840896,base_link,-0.00872354696689,-0.00347992550547,-0.591477840064,-0.806266588372,1.0,0.0,0.0,0.0,1.0,0.0,0.0,0.0,1.0,0.000745648052543,-5.50326076336e-05,-0.000110797293019,1.21846967915e-07,0.0,0.0,0.0,1.21846967915e-07,0.0,0.0,0.0,1.21846967915e-07,0.058030128479,0.169763699174,9.79639720917,9e-08,0.0,0.0,0.0,9e-08,0.0,0.0,0.0,9e-08
1560476270106029863,11095,1560476270103840896,base_link,-0.0087183085746,-0.00348095974962,-0.591484320142,-0.806261962755,1.0,0.0,0.0,0.0,1.0,0.0,0.0,0.0,1.0,-0.00115422718227,0.000805592571851,0.00150412227958,1.21846967915e-07,0.0,0.0,0.0,1.21846967915e-07,0.0,0.0,0.0,1.21846967915e-07,0.0771809220314,0.176430925727,9.8059797287,9e-08,0.0,0.0,0.0,9e-08,0.0,0.0,0.0,9e-08
1560476270126702157,11096,1560476270123838848,base_link,-0.00871002293223,-0.00348773600797,-0.591483150567,-0.806262879449,1.0,0.0,0.0,0.0,1.0,0.0,0.0,0.0,1.0,-0.000328567490214,0.00111252488568,-0.000428525061579,1.21846967915e-07,0.0,0.0,0.0,1.21846967915e-07,0.0,0.0,0.0,1.21846967915e-07,0.0854555815458,0.170362517238,9.81652832031,9e-08,0.0,0.0,0.0,9e-08,0.0,0.0,0.0,9e-08
1560476270146633793,11097,1560476270143838848,base_link,-0.00870114427054,-0.0034918981739,-0.591487143981,-0.806259981854,1.0,0.0,0.0,0.0,1.0,0.0,0.0,0.0,1.0,-0.000862154760398,0.000267700175755,-0.000303370325128,1.21846967915e-07,0.0,0.0,0.0,1.21846967915e-07,0.0,0.0,0.0,1.21846967915e-07,0.0735938176513,0.170230507851,9.78441429138,9e-08,0.0,0.0,0.0,9e-08,0.0,0.0,0.0,9e-08
1560476270166393462,11098,1560476270163838848,base_link,-0.00871546497941,-0.00348983692959,-0.591485795282,-0.806260740497,1.0,0.0,0.0,0.0,1.0,0.0,0.0,0.0,1.0,0.00244950782508,0.000480789662106,0.000393536232878,1.21846967915e-07,0.0,0.0,0.0,1.21846967915e-07,0.0,0.0,0.0,1.21846967915e-07,0.075272411108,0.202583611012,9.80513286591,9e-08,0.0,0.0,0.0,9e-08,0.0,0.0,0.0,9e-08
1560476270186147474,11099,1560476270183838848,base_link,-0.00870909520766,-0.00349928605546,-0.591491548327,-0.806256589032,1.0,0.0,0.0,0.0,1.0,0.0,0.0,0.0,1.0,-0.000532427744474,-5.11312391609e-05,0.000329571892507,1.21846967915e-07,0.0,0.0,0.0,1.21846967915e-07,0.0,0.0,0.0,1.21846967915e-07,0.0570471957326,0.154042094946,9.79537773132,9e-08,0.0,0.0,0.0,9e-08,0.0,0.0,0.0,9e-08
1560476270206765192,11100,1560476270203838848,base_link,-0.00871514048161,-0.00349642155149,-0.591494899001,-0.806254165588,1.0,0.0,0.0,0.0,1.0,0.0,0.0,0.0,1.0,0.000961123965681,-0.0016457522288,0.000527997675817,1.21846967915e-07,0.0,0.0,0.0,1.21846967915e-07,0.0,0.0,0.0,1.21846967915e-07,0.0685891732574,0.203087747097,9.80266094208,9e-08,0.0,0.0,0.0,9e-08,0.0,0.0,0.0,9e-08
1560476270223618531,11101,1560476270219838848,base_link,-0.00870804598162,-0.00350399020352,-0.591507932914,-0.806244587717,1.0,0.0,0.0,0.0,1.0,0.0,0.0,0.0,1.0,-0.00126269948669,0.000378109310986,0.00140121800359,1.21846967915e-07,0.0,0.0,0.0,1.21846967915e-07,0.0,0.0,0.0,1.21846967915e-07,0.0178451761603,0.18411719799,9.82187271118,9e-08,0.0,0.0,0.0,9e-08,0.0,0.0,0.0,9e-08
1560476270248842598,11102,1560476270244836288,base_link,-0.00870894341315,-0.00350598773365,-0.591510345821,-0.806242764866,1.0,0.0,0.0,0.0,1.0,0.0,0.0,0.0,1.0,0.000949269335251,-0.00112069572788,-0.000427751103416,1.21846967915e-07,0.0,0.0,0.0,1.21846967915e-07,0.0,0.0,0.0,1.21846967915e-07,0.0172424539924,0.161070406437,9.781914711,9e-08,0.0,0.0,0.0,9e-08,0.0,0.0,0.0,9e-08
1560476270265126106,11103,1560476270260836288,base_link,-0.00872250432629,-0.00350230367103,-0.591512442627,-0.806241089529,1.0,0.0,0.0,0.0,1.0,0.0,0.0,0.0,1.0,0.00021294518956,-0.00079677515896,0.000531408935785,1.21846967915e-07,0.0,0.0,0.0,1.21846967915e-07,0.0,0.0,0.0,1.21846967915e-07,0.0348273776472,0.178095161915,9.84499549866,9e-08,0.0,0.0,0.0,9e-08,0.0,0.0,0.0,9e-08
1560476270288477840,11104,1560476270284836288,base_link,-0.00872319629194,-0.00350882408484,-0.59152002906,-0.806235526145,1.0,0.0,0.0,0.0,1.0,0.0,0.0,0.0,1.0,-0.000846922746859,0.000904368236661,0.000647419539746,1.21846967915e-07,0.0,0.0,0.0,1.21846967915e-07,0.0,0.0,0.0,1.21846967915e-07,0.0362334623933,0.19416218996,9.73537731171,9e-08,0.0,0.0,0.0,9e-08,0.0,0.0,0.0,9e-08
1560476270303966714,11105,1560476270300836288,base_link,-0.00871520452506,-0.00350615138196,-0.591524096231,-0.806232554792,1.0,0.0,0.0,0.0,1.0,0.0,0.0,0.0,1.0,-0.000427616469096,0.000472865387565,0.000758420675993,1.21846967915e-07,0.0,0.0,0.0,1.21846967915e-07,0.0,0.0,0.0,1.21846967915e-07,0.0229902714491,0.187171161175,9.80325126648,9e-08,0.0,0.0,0.0,9e-08,0.0,0.0,0.0,9e-08
1560476270325256930,11106,1560476270320836288,base_link,-0.00871121275752,-0.00350443356861,-0.591528268769,-0.806229562366,1.0,0.0,0.0,0.0,1.0,0.0,0.0,0.0,1.0,9.32294933591e-05,-0.000166318146512,-0.000528592674527,1.21846967915e-07,0.0,0.0,0.0,1.21846967915e-07,0.0,0.0,0.0,1.21846967915e-07,0.0579935833812,0.194033503532,9.79143714905,9e-08,0.0,0.0,0.0,9e-08,0.0,0.0,0.0,9e-08
1560476270344337345,11107,1560476270340832704,base_link,-0.00870789451638,-0.00349299119315,-0.591526825239,-0.806230753014,1.0,0.0,0.0,0.0,1.0,0.0,0.0,0.0,1.0,-0.00107793766074,0.000367694359738,-0.000515600841027,1.21846967915e-07,0.0,0.0,0.0,1.21846967915e-07,0.0,0.0,0.0,1.21846967915e-07,0.0737579390407,0.192809343338,9.86491966248,9e-08,0.0,0.0,0.0,9e-08,0.0,0.0,0.0,9e-08
1560476270367396153,11108,1560476270360832704,base_link,-0.00870516583722,-0.00349376267804,-0.591526993826,-0.80623066872,1.0,0.0,0.0,0.0,1.0,0.0,0.0,0.0,1.0,0.000104049482616,-0.00037199788494,4.87896613777e-06,1.21846967915e-07,0.0,0.0,0.0,1.21846967915e-07,0.0,0.0,0.0,1.21846967915e-07,0.0375870019197,0.176690861583,9.7644701004,9e-08,0.0,0.0,0.0,9e-08,0.0,0.0,0.0,9e-08
1560476270385546631,11109,1560476270380832704,base_link,-0.00871300119977,-0.00349676300682,-0.591530618455,-0.806227887028,1.0,0.0,0.0,0.0,1.0,0.0,0.0,0.0,1.0,0.002749619307,-0.00133813195862,-0.00109043635894,1.21846967915e-07,0.0,0.0,0.0,1.21846967915e-07,0.0,0.0,0.0,1.21846967915e-07,0.0295222681016,0.184477940202,9.87853813171,9e-08,0.0,0.0,0.0,9e-08,0.0,0.0,0.0,9e-08
1560476270408112090,11110,1560476270400832704,base_link,-0.00871059125615,-0.00349376234877,-0.591539174266,-0.806221691442,1.0,0.0,0.0,0.0,1.0,0.0,0.0,0.0,1.0,-0.00168653693981,0.00303546944633,0.00150341924746,1.21846967915e-07,0.0,0.0,0.0,1.21846967915e-07,0.0,0.0,0.0,1.21846967915e-07,0.0573148839176,0.198049724102,9.7881860733,9e-08,0.0,0.0,0.0,9e-08,0.0,0.0,0.0,9e-08
1560476270423815514,11111,1560476270420832704,base_link,-0.00869443123246,-0.00349095233935,-0.59154098658,-0.806220553477,1.0,0.0,0.0,0.0,1.0,0.0,0.0,0.0,1.0,-0.000765447854064,-0.00176703638863,-0.00125273037702,1.21846967915e-07,0.0,0.0,0.0,1.21846967915e-07,0.0,0.0,0.0,1.21846967915e-07,0.0314774215221,0.171558350325,9.8152961731,9e-08,0.0,0.0,0.0,9e-08,0.0,0.0,0.0,9e-08
1560476270447676574,11112,1560476270444830656,base_link,-0.00870350959778,-0.00348182392465,-0.591548636233,-0.806214842579,1.0,0.0,0.0,0.0,1.0,0.0,0.0,0.0,1.0,0.000955300522037,0.00111132510938,9.21373721212e-05,1.21846967915e-07,0.0,0.0,0.0,1.21846967915e-07,0.0,0.0,0.0,1.21846967915e-07,0.0673761889338,0.142390042543,9.82494831085,9e-08,0.0,0.0,0.0,9e-08,0.0,0.0,0.0,9e-08
1560476270468084439,11113,1560476270464830656,base_link,-0.00870840159566,-0.00348129939395,-0.59155031157,-0.80621358871,1.0,0.0,0.0,0.0,1.0,0.0,0.0,0.0,1.0,0.00137468904722,-0.000381011748686,-0.000545447634067,1.21846967915e-07,0.0,0.0,0.0,1.21846967915e-07,0.0,0.0,0.0,1.21846967915e-07,0.0582958981395,0.215352922678,9.8263130188,9e-08,0.0,0.0,0.0,9e-08,0.0,0.0,0.0,9e-08
1560476270486485415,11114,1560476270480830656,base_link,-0.00871438332006,-0.00348118530112,-0.59155184993,-0.806212303231,1.0,0.0,0.0,0.0,1.0,0.0,0.0,0.0,1.0,0.000952459580731,0.000368170789443,-0.000114730559289,1.21846967915e-07,0.0,0.0,0.0,1.21846967915e-07,0.0,0.0,0.0,1.21846967915e-07,0.0531484596431,0.163865685463,9.79504299164,9e-08,0.0,0.0,0.0,9e-08,0.0,0.0,0.0,9e-08
1560476270504810325,11115,1560476270500830656,base_link,-0.0087230803881,-0.0034813100953,-0.591557592438,-0.80620807801,1.0,0.0,0.0,0.0,1.0,0.0,0.0,0.0,1.0,0.000985144986771,-0.0023831941653,0.00234267208725,1.21846967915e-07,0.0,0.0,0.0,1.21846967915e-07,0.0,0.0,0.0,1.21846967915e-07,0.0795825347304,0.218406558037,9.79623413086,9e-08,0.0,0.0,0.0,9e-08,0.0,0.0,0.0,9e-08
1560476270525450956,11116,1560476270520830656,base_link,-0.00872730116449,-0.00347566159442,-0.591561238141,-0.806205359538,1.0,0.0,0.0,0.0,1.0,0.0,0.0,0.0,1.0,-0.0020193697419,-0.000162622774951,0.000564451562241,1.21846967915e-07,0.0,0.0,0.0,1.21846967915e-07,0.0,0.0,0.0,1.21846967915e-07,0.0868414193392,0.193007364869,9.81978607178,9e-08,0.0,0.0,0.0,9e-08,0.0,0.0,0.0,9e-08
1560476270544388080,11117,1560476270540828608,base_link,-0.00870939566859,-0.00348729906369,-0.591568087004,-0.806200533724,1.0,0.0,0.0,0.0,1.0,0.0,0.0,0.0,1.0,-7.5092582847e-05,0.0024010501802,0.0026540919207,1.21846967915e-07,0.0,0.0,0.0,1.21846967915e-07,0.0,0.0,0.0,1.21846967915e-07,0.0540414527059,0.131331682205,9.75144481659,9e-08,0.0,0.0,0.0,9e-08,0.0,0.0,0.0,9e-08
1560476270568205159,11118,1560476270564828608,base_link,-0.0087294075191,-0.00348597275505,-0.591571100503,-0.80619811028,1.0,0.0,0.0,0.0,1.0,0.0,0.0,0.0,1.0,0.00224481755868,-0.000166820653249,0.00072588614421,1.21846967915e-07,0.0,0.0,0.0,1.21846967915e-07,0.0,0.0,0.0,1.21846967915e-07,0.110885165632,0.143661558628,9.84258365631,9e-08,0.0,0.0,0.0,9e-08,0.0,0.0,0.0,9e-08
1560476270584014112,11119,1560476270580828608,base_link,-0.00871662879219,-0.00349074621492,-0.591574777816,-0.806195528785,1.0,0.0,0.0,0.0,1.0,0.0,0.0,0.0,1.0,-0.00117753318045,0.00217412575148,-0.000202180322958,1.21846967915e-07,0.0,0.0,0.0,1.21846967915e-07,0.0,0.0,0.0,1.21846967915e-07,0.0697338879108,0.20712774992,9.78314399719,9e-08,0.0,0.0,0.0,9e-08,0.0,0.0,0.0,9e-08
1560476270609000405,11120,1560476270605828608,base_link,-0.00871092102231,-0.00349344311932,-0.591573913805,-0.806196139915,1.0,0.0,0.0,0.0,1.0,0.0,0.0,0.0,1.0,0.000525205978192,-0.00112719577737,3.91225330532e-06,1.21846967915e-07,0.0,0.0,0.0,1.21846967915e-07,0.0,0.0,0.0,1.21846967915e-07,0.0873024314642,0.13392239809,9.81939697266,9e-08,0.0,0.0,0.0,9e-08,0.0,0.0,0.0,9e-08
1560476270627026325,11121,1560476270621827072,base_link,-0.00870938101598,-0.00348913920168,-0.591580383347,-0.806191524835,1.0,0.0,0.0,0.0,1.0,0.0,0.0,0.0,1.0,-0.00168818456586,-0.000373147369828,0.00151750748046,1.21846967915e-07,0.0,0.0,0.0,1.21846967915e-07,0.0,0.0,0.0,1.21846967915e-07,0.0589577369392,0.197614997625,9.80146121979,9e-08,0.0,0.0,0.0,9e-08,0.0,0.0,0.0,9e-08
1560476270644714240,11122,1560476270641827072,base_link,-0.008699684442,-0.00349136261258,-0.591578844987,-0.80619272602,1.0,0.0,0.0,0.0,1.0,0.0,0.0,0.0,1.0,8.62087181304e-05,-6.60360674374e-05,-0.00116543867625,1.21846967915e-07,0.0,0.0,0.0,1.21846967915e-07,0.0,0.0,0.0,1.21846967915e-07,0.0884067714214,0.159643635154,9.79503536224,9e-08,0.0,0.0,0.0,9e-08,0.0,0.0,0.0,9e-08
1560476270665622193,11123,1560476270661827072,base_link,-0.00869194325131,-0.00348700634066,-0.591578602642,-0.806192968364,1.0,0.0,0.0,0.0,1.0,0.0,0.0,0.0,1.0,-0.000214634186705,-0.000479967449792,0.000649484223686,1.21846967915e-07,0.0,0.0,0.0,1.21846967915e-07,0.0,0.0,0.0,1.21846967915e-07,0.0521871000528,0.164563909173,9.856341362,9e-08,0.0,0.0,0.0,9e-08,0.0,0.0,0.0,9e-08
1560476270684518032,11124,1560476270681827072,base_link,-0.00870656046985,-0.00348613689727,-0.59158191117,-0.806190334186,1.0,0.0,0.0,0.0,1.0,0.0,0.0,0.0,1.0,-0.00064907129854,-0.00122725451365,-0.000399344833568,1.21846967915e-07,0.0,0.0,0.0,1.21846967915e-07,0.0,0.0,0.0,1.21846967915e-07,0.0531442426145,0.187406152487,9.78440856934,9e-08,0.0,0.0,0.0,9e-08,0.0,0.0,0.0,9e-08
1560476270705441220,11125,1560476270701827072,base_link,-0.00870118855766,-0.00348540146769,-0.591578139027,-0.806193179099,1.0,0.0,0.0,0.0,1.0,0.0,0.0,0.0,1.0,-0.00192894227803,0.00185060175136,-0.000831126701087,1.21846967915e-07,0.0,0.0,0.0,1.21846967915e-07,0.0,0.0,0.0,1.21846967915e-07,0.0566130653024,0.164403021336,9.80355072021,9e-08,0.0,0.0,0.0,9e-08,0.0,0.0,0.0,9e-08
1560476270726467311,11126,1560476270721825024,base_link,-0.0087000826968,-0.00348772168463,-0.591584534811,-0.806188553482,1.0,0.0,0.0,0.0,1.0,0.0,0.0,0.0,1.0,0.000440029631136,-0.000801204063464,0.000857209262904,1.21846967915e-07,0.0,0.0,0.0,1.21846967915e-07,0.0,0.0,0.0,1.21846967915e-07,0.0491628758609,0.148180812597,9.78509616852,9e-08,0.0,0.0,0.0,9e-08,0.0,0.0,0.0,9e-08
1560476270745195972,11127,1560476270741825024,base_link,-0.00871623070204,-0.00346970736425,-0.591587506164,-0.806186172185,1.0,0.0,0.0,0.0,1.0,0.0,0.0,0.0,1.0,-0.00010787890642,-0.000166709767655,0.000215277075768,1.21846967915e-07,0.0,0.0,0.0,1.21846967915e-07,0.0,0.0,0.0,1.21846967915e-07,0.0848152637482,0.182078957558,9.80745792389,9e-08,0.0,0.0,0.0,9e-08,0.0,0.0,0.0,9e-08
