%time,field.header.seq,field.header.stamp,field.header.frame_id,field.orientation.x,field.orientation.y,field.orientation.z,field.orientation.w,field.orientation_covariance0,field.orientation_covariance1,field.orientation_covariance2,field.orientation_covariance3,field.orientation_covariance4,field.orientation_covariance5,field.orientation_covariance6,field.orientation_covariance7,field.orientation_covariance8,field.angular_velocity.x,field.angular_velocity.y,field.angular_velocity.z,field.angular_velocity_covariance0,field.angular_velocity_covariance1,field.angular_velocity_covariance2,field.angular_velocity_covariance3,field.angular_velocity_covariance4,field.angular_velocity_covariance5,field.angular_velocity_covariance6,field.angular_velocity_covariance7,field.angular_velocity_covariance8,field.linear_acceleration.x,field.linear_acceleration.y,field.linear_acceleration.z,field.linear_acceleration_covariance0,field.linear_acceleration_covariance1,field.linear_acceleration_covariance2,field.linear_acceleration_covariance3,field.linear_acceleration_covariance4,field.linear_acceleration_covariance5,field.linear_acceleration_covariance6,field.linear_acceleration_covariance7,field.linear_acceleration_covariance8
1560469595023992382,33059,1560469594929181248,base_link,-0.00220789793253,0.00152787590092,-0.601455779811,-0.798901584645,1.0,0.0,0.0,0.0,1.0,0.0,0.0,0.0,1.0,0.0002230869286,-0.00173522555269,9.12789255381e-05,1.21846967915e-07,0.0,0.0,0.0,1.21846967915e-07,0.0,0.0,0.0,1.21846967915e-07,0.0597564503551,-0.0162599235773,9.8184709549,9e-08,0.0,0.0,0.0,9e-08,0.0,0.0,0.0,9e-08
1560469595024027915,33060,1560469594945181248,base_link,-0.0022162189305,0.00152326020362,-0.601448688604,-0.798906989979,1.0,0.0,0.0,0.0,1.0,0.0,0.0,0.0,1.0,0.00106961396523,-0.00109862175304,-0.000347986002453,1.21846967915e-07,0.0,0.0,0.0,1.21846967915e-07,0.0,0.0,0.0,1.21846967915e-07,0.0607060790062,0.0160884335637,9.81923007965,9e-08,0.0,0.0,0.0,9e-08,0.0,0.0,0.0,9e-08
1560469595024073331,33061,1560469594969181248,base_link,-0.0022143826203,0.00152259766669,-0.601437035,-0.798915777597,1.0,0.0,0.0,0.0,1.0,0.0,0.0,0.0,1.0,-0.00119361840189,-0.00047144680866,-0.00191999110393,1.21846967915e-07,0.0,0.0,0.0,1.21846967915e-07,0.0,0.0,0.0,1.21846967915e-07,0.074584916234,0.0174241960049,9.78796768188,9e-08,0.0,0.0,0.0,9e-08,0.0,0.0,0.0,9e-08
1560469595024161349,33062,1560469594985181248,base_link,-0.0022125982528,0.00151868924619,-0.601428658314,-0.798922131234,1.0,0.0,0.0,0.0,1.0,0.0,0.0,0.0,1.0,0.000831895857118,5.98662518314e-05,-0.00184234220069,1.21846967915e-07,0.0,0.0,0.0,1.21846967915e-07,0.0,0.0,0.0,1.21846967915e-07,0.0230845436454,0.00208865106106,9.78255462646,9e-08,0.0,0.0,0.0,9e-08,0.0,0.0,0.0,9e-08
1560469595024195994,33063,1560469595007179200,base_link,-0.00221709430079,0.0015223318205,-0.601414981662,-0.798932351845,1.0,0.0,0.0,0.0,1.0,0.0,0.0,0.0,1.0,-0.000331182207447,-0.000147095081047,-0.00161302345805,1.21846967915e-07,0.0,0.0,0.0,1.21846967915e-07,0.0,0.0,0.0,1.21846967915e-07,0.0636903494596,-0.018378727138,9.86385250092,9e-08,0.0,0.0,0.0,9e-08,0.0,0.0,0.0,9e-08
1560469595033656145,33064,1560469595031179200,base_link,-0.00221528013415,0.00151531391748,-0.601399345181,-0.798944110816,1.0,0.0,0.0,0.0,1.0,0.0,0.0,0.0,1.0,0.000944608589634,0.000811184116174,-0.00152813678142,1.21846967915e-07,0.0,0.0,0.0,1.21846967915e-07,0.0,0.0,0.0,1.21846967915e-07,0.0470300093293,0.00957988202572,9.75847816467,9e-08,0.0,0.0,0.0,9e-08,0.0,0.0,0.0,9e-08
1560469595051598605,33065,1560469595047179200,base_link,-0.00222561191546,0.00151400419593,-0.601388576661,-0.798952266231,1.0,0.0,0.0,0.0,1.0,0.0,0.0,0.0,1.0,-0.000549961230718,-0.000150265012053,-0.00203522644006,1.21846967915e-07,0.0,0.0,0.0,1.21846967915e-07,0.0,0.0,0.0,1.21846967915e-07,0.0819550454617,-0.0166342929006,9.84483146667,9e-08,0.0,0.0,0.0,9e-08,0.0,0.0,0.0,9e-08
1560469595073595040,33066,1560469595071179200,base_link,-0.00220994444191,0.00151901773643,-0.601371159476,-0.798965384437,1.0,0.0,0.0,0.0,1.0,0.0,0.0,0.0,1.0,-0.00279184896499,-0.000149232539115,-0.0020052138716,1.21846967915e-07,0.0,0.0,0.0,1.21846967915e-07,0.0,0.0,0.0,1.21846967915e-07,0.0462123900652,0.0182668082416,9.77893066406,9e-08,0.0,0.0,0.0,9e-08,0.0,0.0,0.0,9e-08
1560469595094181968,33067,1560469595091179200,base_link,-0.0022214942836,0.00152201876491,-0.601358157173,-0.798975099286,1.0,0.0,0.0,0.0,1.0,0.0,0.0,0.0,1.0,0.000515330466442,-0.00269993953407,-0.00171578186564,1.21846967915e-07,0.0,0.0,0.0,1.21846967915e-07,0.0,0.0,0.0,1.21846967915e-07,0.0547289177775,0.0128331296146,9.73264598846,9e-08,0.0,0.0,0.0,9e-08,0.0,0.0,0.0,9e-08
1560469595113923925,33068,1560469595111176384,base_link,-0.00221572234679,0.00151645912638,-0.601347620461,-0.798983107187,1.0,0.0,0.0,0.0,1.0,0.0,0.0,0.0,1.0,-0.0012865253957,-0.000141682394315,-0.00128048367333,1.21846967915e-07,0.0,0.0,0.0,1.21846967915e-07,0.0,0.0,0.0,1.21846967915e-07,0.0810279846191,0.0092860609293,9.80658245087,9e-08,0.0,0.0,0.0,9e-08,0.0,0.0,0.0,9e-08
1560469595131576937,33069,1560469595127176384,base_link,-0.00222288883392,0.00151835585804,-0.60133567183,-0.798992021246,1.0,0.0,0.0,0.0,1.0,0.0,0.0,0.0,1.0,-0.000329858972691,-0.000890650553629,-0.000754856853746,1.21846967915e-07,0.0,0.0,0.0,1.21846967915e-07,0.0,0.0,0.0,1.21846967915e-07,0.0307688489556,0.030851136893,9.82812023163,9e-08,0.0,0.0,0.0,9e-08,0.0,0.0,0.0,9e-08
1560469595150689450,33070,1560469595147176384,base_link,-0.00222294538643,0.00151802271683,-0.601325156191,-0.79899992378,1.0,0.0,0.0,0.0,1.0,0.0,0.0,0.0,1.0,0.00136219023261,0.00123364722822,-0.00217403122224,1.21846967915e-07,0.0,0.0,0.0,1.21846967915e-07,0.0,0.0,0.0,1.21846967915e-07,0.0305179730058,0.0140871591866,9.80743408203,9e-08,0.0,0.0,0.0,9e-08,0.0,0.0,0.0,9e-08
1560469595170772733,33071,1560469595167176384,base_link,-0.0022271640637,0.00150843657254,-0.601310172986,-0.799011282355,1.0,0.0,0.0,0.0,1.0,0.0,0.0,0.0,1.0,0.00190812512301,0.00049577257596,-0.00100551568903,1.21846967915e-07,0.0,0.0,0.0,1.21846967915e-07,0.0,0.0,0.0,1.21846967915e-07,0.0293207839131,0.0396602898836,9.81141757965,9e-08,0.0,0.0,0.0,9e-08,0.0,0.0,0.0,9e-08
1560469595190721680,33072,1560469595187176384,base_link,-0.00222392513602,0.00150312199489,-0.601294620799,-0.799022957032,1.0,0.0,0.0,0.0,1.0,0.0,0.0,0.0,1.0,0.00146069319453,0.000911895360332,-0.00270579382777,1.21846967915e-07,0.0,0.0,0.0,1.21846967915e-07,0.0,0.0,0.0,1.21846967915e-07,0.0496298521757,0.0091966688633,9.80143356323,9e-08,0.0,0.0,0.0,9e-08,0.0,0.0,0.0,9e-08
1560469595211758821,33073,1560469595207174336,base_link,-0.00222711273839,0.00150520801694,-0.601281681717,-0.799032608661,1.0,0.0,0.0,0.0,1.0,0.0,0.0,0.0,1.0,0.000633922638372,-0.000144088844536,-0.000984097598121,1.21846967915e-07,0.0,0.0,0.0,1.21846967915e-07,0.0,0.0,0.0,1.21846967915e-07,0.0462689250708,0.0209977924824,9.79081726074,9e-08,0.0,0.0,0.0,9e-08,0.0,0.0,0.0,9e-08
1560469595234063478,33074,1560469595231174336,base_link,-0.00222547576138,0.00150707252107,-0.601268152578,-0.799042850345,1.0,0.0,0.0,0.0,1.0,0.0,0.0,0.0,1.0,0.00145624158904,-4.5495962695e-05,-0.00301606627181,1.21846967915e-07,0.0,0.0,0.0,1.21846967915e-07,0.0,0.0,0.0,1.21846967915e-07,0.0557596534491,0.0100911557674,9.79071521759,9e-08,0.0,0.0,0.0,9e-08,0.0,0.0,0.0,9e-08
1560469595253652219,33075,1560469595251174336,base_link,-0.00222569131123,0.00150556589472,-0.6012553294,-0.799052554657,1.0,0.0,0.0,0.0,1.0,0.0,0.0,0.0,1.0,0.000538281165063,-0.00152677390724,-0.000341904815286,1.21846967915e-07,0.0,0.0,0.0,1.21846967915e-07,0.0,0.0,0.0,1.21846967915e-07,0.0379170924425,0.0345824100077,9.84548187256,9e-08,0.0,0.0,0.0,9e-08,0.0,0.0,0.0,9e-08
1560469595272032295,33076,1560469595267174336,base_link,-0.00223285672823,0.00149997999672,-0.60124449766,-0.799060520411,1.0,0.0,0.0,0.0,1.0,0.0,0.0,0.0,1.0,0.00220814580098,0.000175131601281,-0.00174837000668,1.21846967915e-07,0.0,0.0,0.0,1.21846967915e-07,0.0,0.0,0.0,1.21846967915e-07,0.0656896233559,0.0334703624249,9.81629180908,9e-08,0.0,0.0,0.0,9e-08,0.0,0.0,0.0,9e-08
1560469595293807364,33077,1560469595291174336,base_link,-0.00223375909884,0.00149935388553,-0.601238238853,-0.799065261932,1.0,0.0,0.0,0.0,1.0,0.0,0.0,0.0,1.0,-0.000841232482344,0.000820926332381,0.000522261369042,1.21846967915e-07,0.0,0.0,0.0,1.21846967915e-07,0.0,0.0,0.0,1.21846967915e-07,0.0264092087746,0.0348671600223,9.80685997009,9e-08,0.0,0.0,0.0,9e-08,0.0,0.0,0.0,9e-08
1560469595311930261,33078,1560469595307172288,base_link,-0.00222587426313,0.00150695982764,-0.601231748238,-0.799070319553,1.0,0.0,0.0,0.0,1.0,0.0,0.0,0.0,1.0,-0.000845874310471,0.000290731346468,-0.000114357448183,1.21846967915e-07,0.0,0.0,0.0,1.21846967915e-07,0.0,0.0,0.0,1.21846967915e-07,0.0735441893339,0.0149617120624,9.80740833282,9e-08,0.0,0.0,0.0,9e-08,0.0,0.0,0.0,9e-08
1560469595333833637,33079,1560469595331172288,base_link,-0.0022308252419,0.00150573061316,-0.60122382463,-0.799076135819,1.0,0.0,0.0,0.0,1.0,0.0,0.0,0.0,1.0,0.00223686126992,-0.000357969081961,-0.000576004153118,1.21846967915e-07,0.0,0.0,0.0,1.21846967915e-07,0.0,0.0,0.0,1.21846967915e-07,0.0595406144857,0.0248889401555,9.82215976715,9e-08,0.0,0.0,0.0,9e-08,0.0,0.0,0.0,9e-08
1560469595353167720,33080,1560469595347172288,base_link,-0.00222822226241,0.00150483639204,-0.601213877974,-0.799083722251,1.0,0.0,0.0,0.0,1.0,0.0,0.0,0.0,1.0,-0.000338216224918,0.000915810698643,-0.0018286309205,1.21846967915e-07,0.0,0.0,0.0,1.21846967915e-07,0.0,0.0,0.0,1.21846967915e-07,0.0937157571316,0.0130187347531,9.8125333786,9e-08,0.0,0.0,0.0,9e-08,0.0,0.0,0.0,9e-08
1560469595371778022,33081,1560469595369172288,base_link,-0.00222248070096,0.00149991908136,-0.601201929343,-0.799092720603,1.0,0.0,0.0,0.0,1.0,0.0,0.0,0.0,1.0,-0.000239857661654,0.00123083568178,-0.00247090053745,1.21846967915e-07,0.0,0.0,0.0,1.21846967915e-07,0.0,0.0,0.0,1.21846967915e-07,0.0738281607628,0.00736613571644,9.82035827637,9e-08,0.0,0.0,0.0,9e-08,0.0,0.0,0.0,9e-08
1560469595391521946,33082,1560469595389172288,base_link,-0.00221998876854,0.00149378375145,-0.601188031419,-0.799103162485,1.0,0.0,0.0,0.0,1.0,0.0,0.0,0.0,1.0,0.000417803355958,-0.000781052047387,-0.000979349715635,1.21846967915e-07,0.0,0.0,0.0,1.21846967915e-07,0.0,0.0,0.0,1.21846967915e-07,0.0560148507357,-0.0200266242027,9.7712430954,9e-08,0.0,0.0,0.0,9e-08,0.0,0.0,0.0,9e-08
1560469595411885021,33083,1560469595409170240,base_link,-0.00222025453241,0.00148656902593,-0.601178980384,-0.799110021885,1.0,0.0,0.0,0.0,1.0,0.0,0.0,0.0,1.0,0.000306659407215,0.00198462954722,-0.00120179564692,1.21846967915e-07,0.0,0.0,0.0,1.21846967915e-07,0.0,0.0,0.0,1.21846967915e-07,0.0401256680489,0.00916453450918,9.79413318634,9e-08,0.0,0.0,0.0,9e-08,0.0,0.0,0.0,9e-08
1560469595432288799,33084,1560469595429170240,base_link,-0.00221930606368,0.00149017142903,-0.601167853616,-0.799118451254,1.0,0.0,0.0,0.0,1.0,0.0,0.0,0.0,1.0,-0.000747056445107,-0.00120549649,-0.000327639863826,1.21846967915e-07,0.0,0.0,0.0,1.21846967915e-07,0.0,0.0,0.0,1.21846967915e-07,0.0698738247156,-0.00549422204494,9.81109237671,9e-08,0.0,0.0,0.0,9e-08,0.0,0.0,0.0,9e-08
1560469595452782736,33085,1560469595449170240,base_link,-0.00222184672839,0.00149911874398,-0.601155599419,-0.79912750229,1.0,0.0,0.0,0.0,1.0,0.0,0.0,0.0,1.0,8.5864259745e-05,-0.000787725904956,-0.00193348864559,1.21846967915e-07,0.0,0.0,0.0,1.21846967915e-07,0.0,0.0,0.0,1.21846967915e-07,0.0524680539966,0.0328977294266,9.79104423523,9e-08,0.0,0.0,0.0,9e-08,0.0,0.0,0.0,9e-08
1560469595472539344,33086,1560469595469170240,base_link,-0.00222016731642,0.00149073065679,-0.601143829912,-0.799136321518,1.0,0.0,0.0,0.0,1.0,0.0,0.0,0.0,1.0,0.000311094161589,0.00146062206477,-0.000457059941255,1.21846967915e-07,0.0,0.0,0.0,1.21846967915e-07,0.0,0.0,0.0,1.21846967915e-07,0.0609314069152,-0.00073767453432,9.81611919403,9e-08,0.0,0.0,0.0,9e-08,0.0,0.0,0.0,9e-08
1560469595491212988,33087,1560469595489170240,base_link,-0.00222769238104,0.00149673275491,-0.601132408116,-0.799145045916,1.0,0.0,0.0,0.0,1.0,0.0,0.0,0.0,1.0,-0.000980330863968,-0.00121379713528,-0.00202355044894,1.21846967915e-07,0.0,0.0,0.0,1.21846967915e-07,0.0,0.0,0.0,1.21846967915e-07,0.100592128932,0.023248590529,9.86224460602,9e-08,0.0,0.0,0.0,9e-08,0.0,0.0,0.0,9e-08
1560469595511961286,33088,1560469595509167424,base_link,-0.00222614904082,0.00149492114013,-0.601120080163,-0.799154339296,1.0,0.0,0.0,0.0,1.0,0.0,0.0,0.0,1.0,-0.000545337970834,-0.000782226561569,-0.00160569848958,1.21846967915e-07,0.0,0.0,0.0,1.21846967915e-07,0.0,0.0,0.0,1.21846967915e-07,0.0596032217145,0.0205218791962,9.7902135849,9e-08,0.0,0.0,0.0,9e-08,0.0,0.0,0.0,9e-08
1560469595531740718,33089,1560469595529167424,base_link,-0.00223462496139,0.00150185779523,-0.601105033738,-0.799165508211,1.0,0.0,0.0,0.0,1.0,0.0,0.0,0.0,1.0,-0.000862719258294,-0.00111267575994,-0.00171798409428,1.21846967915e-07,0.0,0.0,0.0,1.21846967915e-07,0.0,0.0,0.0,1.21846967915e-07,0.0396572351456,-0.0256689861417,9.7931470871,9e-08,0.0,0.0,0.0,9e-08,0.0,0.0,0.0,9e-08
1560469595552849564,33090,1560469595549167424,base_link,-0.00222046868285,0.00149355803532,-0.601087426892,-0.799178900372,1.0,0.0,0.0,0.0,1.0,0.0,0.0,0.0,1.0,-0.00087021489162,0.00198483397253,-0.00172818126157,1.21846967915e-07,0.0,0.0,0.0,1.21846967915e-07,0.0,0.0,0.0,1.21846967915e-07,0.0635203272104,0.0496427491307,9.76188755035,9e-08,0.0,0.0,0.0,9e-08,0.0,0.0,0.0,9e-08
1560469595571893538,33091,1560469595569167424,base_link,-0.00222225543758,0.00149212887026,-0.601080304074,-0.799184253022,1.0,0.0,0.0,0.0,1.0,0.0,0.0,0.0,1.0,0.00160227739252,-0.00120488414541,-0.000150174251758,1.21846967915e-07,0.0,0.0,0.0,1.21846967915e-07,0.0,0.0,0.0,1.21846967915e-07,0.0669213235378,0.00847257673741,9.80587100983,9e-08,0.0,0.0,0.0,9e-08,0.0,0.0,0.0,9e-08
1560469595591923618,33092,1560469595589167424,base_link,-0.0022210989511,0.00149323497808,-0.601068018268,-0.799193504255,1.0,0.0,0.0,0.0,1.0,0.0,0.0,0.0,1.0,-0.000745099445339,0.00102891668212,-0.000339377205819,1.21846967915e-07,0.0,0.0,0.0,1.21846967915e-07,0.0,0.0,0.0,1.21846967915e-07,0.0668264850974,-0.0010886117816,9.80293464661,9e-08,0.0,0.0,0.0,9e-08,0.0,0.0,0.0,9e-08
1560469595611997484,33093,1560469595609165376,base_link,-0.00222236319192,0.00149224304541,-0.60105448913,-0.799203661645,1.0,0.0,0.0,0.0,1.0,0.0,0.0,0.0,1.0,-0.000241016430664,-0.0013186208671,-0.00256375246681,1.21846967915e-07,0.0,0.0,0.0,1.21846967915e-07,0.0,0.0,0.0,1.21846967915e-07,0.0439234226942,0.00782231986523,9.83297348022,9e-08,0.0,0.0,0.0,9e-08,0.0,0.0,0.0,9e-08
1560469595632665518,33094,1560469595629165376,base_link,-0.00222216641059,0.0014942643243,-0.601043604706,-0.799211848671,1.0,0.0,0.0,0.0,1.0,0.0,0.0,0.0,1.0,-0.00214053876698,-0.000465181015898,-0.000952268193942,1.21846967915e-07,0.0,0.0,0.0,1.21846967915e-07,0.0,0.0,0.0,1.21846967915e-07,0.0463560372591,-0.00197647511959,9.804936409,9e-08,0.0,0.0,0.0,9e-08,0.0,0.0,0.0,9e-08
1560469595651309704,33095,1560469595649165376,base_link,-0.00222172358057,0.00149032256499,-0.601028558281,-0.799223101879,1.0,0.0,0.0,0.0,1.0,0.0,0.0,0.0,1.0,-0.00138532218989,-0.000888904090971,-0.00074291380588,1.21846967915e-07,0.0,0.0,0.0,1.21846967915e-07,0.0,0.0,0.0,1.21846967915e-07,0.052675627172,-0.0132767632604,9.81741333008,9e-08,0.0,0.0,0.0,9e-08,0.0,0.0,0.0,9e-08
1560469595672908912,33096,1560469595669165376,base_link,-0.00222405984953,0.00149146670375,-0.601013817421,-0.799234133817,1.0,0.0,0.0,0.0,1.0,0.0,0.0,0.0,1.0,-0.000442060554633,0.000703405588865,-0.0016194677446,1.21846967915e-07,0.0,0.0,0.0,1.21846967915e-07,0.0,0.0,0.0,1.21846967915e-07,0.0186659321189,0.0364532135427,9.80283260345,9e-08,0.0,0.0,0.0,9e-08,0.0,0.0,0.0,9e-08
1560469595691807058,33097,1560469595689165376,base_link,-0.00222434833318,0.00148985553346,-0.601003818081,-0.799241604346,1.0,0.0,0.0,0.0,1.0,0.0,0.0,0.0,1.0,0.00179429608397,0.000392353278585,-0.00100897427183,1.21846967915e-07,0.0,0.0,0.0,1.21846967915e-07,0.0,0.0,0.0,1.21846967915e-07,0.024456627667,-0.00706371665001,9.84134292603,9e-08,0.0,0.0,0.0,9e-08,0.0,0.0,0.0,9e-08
1560469595712291197,33098,1560469595709164608,base_link,-0.0022324022502,0.00149282762714,-0.600994040012,-0.799249022191,1.0,0.0,0.0,0.0,1.0,0.0,0.0,0.0,1.0,0.000525995914359,0.000171666499227,-0.000991045613773,1.21846967915e-07,0.0,0.0,0.0,1.21846967915e-07,0.0,0.0,0.0,1.21846967915e-07,0.0139653980732,0.00905007123947,9.84659671783,9e-08,0.0,0.0,0.0,9e-08,0.0,0.0,0.0,9e-08
1560469595732459692,33099,1560469595726164608,base_link,-0.00222500539597,0.00149115072587,-0.600984388384,-0.799256313596,1.0,0.0,0.0,0.0,1.0,0.0,0.0,0.0,1.0,0.000730696308892,0.0019818986766,-0.00132189178839,1.21846967915e-07,0.0,0.0,0.0,1.21846967915e-07,0.0,0.0,0.0,1.21846967915e-07,0.0271109566092,-0.0149656012654,9.79276943207,9e-08,0.0,0.0,0.0,9e-08,0.0,0.0,0.0,9e-08
1560469595750748026,33100,1560469595746164608,base_link,-0.00223507627017,0.00149048814777,-0.600970764415,-0.799266481523,1.0,0.0,0.0,0.0,1.0,0.0,0.0,0.0,1.0,0.000933870323934,-0.000895218108781,-0.00205562729388,1.21846967915e-07,0.0,0.0,0.0,1.21846967915e-07,0.0,0.0,0.0,1.21846967915e-07,0.0369432419538,0.0157496631145,9.85207939148,9e-08,0.0,0.0,0.0,9e-08,0.0,0.0,0.0,9e-08
1560469595771619915,33101,1560469595766164608,base_link,-0.0022340973026,0.00149391920582,-0.600957846406,-0.799276196372,1.0,0.0,0.0,0.0,1.0,0.0,0.0,0.0,1.0,-0.00117911328562,-0.000250941840932,-0.000859789608512,1.21846967915e-07,0.0,0.0,0.0,1.21846967915e-07,0.0,0.0,0.0,1.21846967915e-07,0.0486220046878,0.0145438797772,9.7987575531,9e-08,0.0,0.0,0.0,9e-08,0.0,0.0,0.0,9e-08
1560469595793319525,33102,1560469595790164608,base_link,-0.00223946147689,0.00149352473766,-0.600943210913,-0.799287207236,1.0,0.0,0.0,0.0,1.0,0.0,0.0,0.0,1.0,0.000411423738115,-0.00216857995838,-0.00129205582198,1.21846967915e-07,0.0,0.0,0.0,1.21846967915e-07,0.0,0.0,0.0,1.21846967915e-07,0.0559547767043,-0.0148613229394,9.82038784027,9e-08,0.0,0.0,0.0,9e-08,0.0,0.0,0.0,9e-08
1560469595813295751,33103,1560469595810162560,base_link,-0.00224047929859,0.00149789677349,-0.600926373247,-0.799299914511,1.0,0.0,0.0,0.0,1.0,0.0,0.0,0.0,1.0,-0.000342717685271,0.000481405440951,-0.00236432463862,1.21846967915e-07,0.0,0.0,0.0,1.21846967915e-07,0.0,0.0,0.0,1.21846967915e-07,0.0214997157454,0.0202016457915,9.80543994904,9e-08,0.0,0.0,0.0,9e-08,0.0,0.0,0.0,9e-08
1560469595831844080,33104,1560469595826162560,base_link,-0.00224336528758,0.00149745299681,-0.600916879669,-0.799306963571,1.0,0.0,0.0,0.0,1.0,0.0,0.0,0.0,1.0,0.000746568315662,0.000603900873102,-3.78645490855e-05,1.21846967915e-07,0.0,0.0,0.0,1.21846967915e-07,0.0,0.0,0.0,1.21846967915e-07,0.0722934156656,0.0246586762369,9.82320594788,9e-08,0.0,0.0,0.0,9e-08,0.0,0.0,0.0,9e-08
1560469595852023350,33105,1560469595846162560,base_link,-0.00224226350146,0.00150103453227,-0.600905752901,-0.799315308647,1.0,0.0,0.0,0.0,1.0,0.0,0.0,0.0,1.0,0.000514996820129,0.000275757571217,-0.00130934186745,1.21846967915e-07,0.0,0.0,0.0,1.21846967915e-07,0.0,0.0,0.0,1.21846967915e-07,-0.00598464906216,0.0196935795248,9.78426361084,9e-08,0.0,0.0,0.0,9e-08,0.0,0.0,0.0,9e-08
1560469595873440718,33106,1560469595870162560,base_link,-0.00224348975249,0.00149577568395,-0.600896248787,-0.799322536832,1.0,0.0,0.0,0.0,1.0,0.0,0.0,0.0,1.0,0.00233172625303,-0.00111446017399,-0.000902239931747,1.21846967915e-07,0.0,0.0,0.0,1.21846967915e-07,0.0,0.0,0.0,1.21846967915e-07,0.0483415871859,0.0168470069766,9.85330486298,9e-08,0.0,0.0,0.0,9e-08,0.0,0.0,0.0,9e-08
1560469595892023302,33107,1560469595886162560,base_link,-0.00223393834642,0.00149216673657,-0.600891180629,-0.799326424878,1.0,0.0,0.0,0.0,1.0,0.0,0.0,0.0,1.0,-0.00201755552553,0.00135275383946,0.000313695636578,1.21846967915e-07,0.0,0.0,0.0,1.21846967915e-07,0.0,0.0,0.0,1.21846967915e-07,0.0873567759991,0.0226060077548,9.82170009613,9e-08,0.0,0.0,0.0,9e-08,0.0,0.0,0.0,9e-08
1560469595911812360,33108,1560469595906160512,base_link,-0.00223222246755,0.00149410421567,-0.600871719321,-0.799340997151,1.0,0.0,0.0,0.0,1.0,0.0,0.0,0.0,1.0,0.000719274918083,-0.000682378537022,-0.00205069361255,1.21846967915e-07,0.0,0.0,0.0,1.21846967915e-07,0.0,0.0,0.0,1.21846967915e-07,0.0803709626198,-0.0233299583197,9.77204036713,9e-08,0.0,0.0,0.0,9e-08,0.0,0.0,0.0,9e-08
1560469595930826405,33109,1560469595927160512,base_link,-0.00223785166484,0.00149344637086,-0.60085986552,-0.799349900673,1.0,0.0,0.0,0.0,1.0,0.0,0.0,0.0,1.0,-0.000132980436319,-0.000506392098032,-0.00204183673486,1.21846967915e-07,0.0,0.0,0.0,1.21846967915e-07,0.0,0.0,0.0,1.21846967915e-07,0.0745773911476,-0.00841197371483,9.81309318542,9e-08,0.0,0.0,0.0,9e-08,0.0,0.0,0.0,9e-08
1560469595954709432,33110,1560469595951160512,base_link,-0.00223358549004,0.00148623740761,-0.600846842144,-0.799359636595,1.0,0.0,0.0,0.0,1.0,0.0,0.0,0.0,1.0,0.00146234617569,0.000388942251448,-0.0021741874516,1.21846967915e-07,0.0,0.0,0.0,1.21846967915e-07,0.0,0.0,0.0,1.21846967915e-07,0.0625682175159,0.00116501748562,9.79026603699,9e-08,0.0,0.0,0.0,9e-08,0.0,0.0,0.0,9e-08
1560469595971626539,33111,1560469595968160512,base_link,-0.00223086310821,0.00148955873568,-0.600836579386,-0.799367454836,1.0,0.0,0.0,0.0,1.0,0.0,0.0,0.0,1.0,-0.00126896775328,-0.000325433502439,-0.00114120752551,1.21846967915e-07,0.0,0.0,0.0,1.21846967915e-07,0.0,0.0,0.0,1.21846967915e-07,0.0595791041851,-0.00329751521349,9.81467723846,9e-08,0.0,0.0,0.0,9e-08,0.0,0.0,0.0,9e-08
1560469595991736058,33112,1560469595989160512,base_link,-0.0022232366689,0.00149119670051,-0.600823724597,-0.799377190758,1.0,0.0,0.0,0.0,1.0,0.0,0.0,0.0,1.0,-0.000785381067544,0.000696342904121,-0.00310206389986,1.21846967915e-07,0.0,0.0,0.0,1.21846967915e-07,0.0,0.0,0.0,1.21846967915e-07,0.0647001340985,0.0104742571712,9.7744550705,9e-08,0.0,0.0,0.0,9e-08,0.0,0.0,0.0,9e-08
1560469596013226670,33113,1560469596009158464,base_link,-0.00222902902059,0.0014965693124,-0.600810606391,-0.799386937216,1.0,0.0,0.0,0.0,1.0,0.0,0.0,0.0,1.0,-0.00033018659451,-0.000255595572526,-0.000977766700089,1.21846967915e-07,0.0,0.0,0.0,1.21846967915e-07,0.0,0.0,0.0,1.21846967915e-07,0.0741997808218,-0.0155086740851,9.81087398529,9e-08,0.0,0.0,0.0,9e-08,0.0,0.0,0.0,9e-08
1560469596031935515,33114,1560469596029158464,base_link,-0.00222122296327,0.00149374119301,-0.600799226742,-0.799395535173,1.0,0.0,0.0,0.0,1.0,0.0,0.0,0.0,1.0,0.000506912474521,-0.000362824153854,-0.00194350909442,1.21846967915e-07,0.0,0.0,0.0,1.21846967915e-07,0.0,0.0,0.0,1.21846967915e-07,0.0319696292281,0.00289159268141,9.78569793701,9e-08,0.0,0.0,0.0,9e-08,0.0,0.0,0.0,9e-08
1560469596051714391,33115,1560469596049158464,base_link,-0.00222435549486,0.00149335874329,-0.600788763787,-0.799403385024,1.0,0.0,0.0,0.0,1.0,0.0,0.0,0.0,1.0,-0.000328292051563,-0.0008878094377,-0.000861592299771,1.21846967915e-07,0.0,0.0,0.0,1.21846967915e-07,0.0,0.0,0.0,1.21846967915e-07,0.0642812177539,0.0368439294398,9.81774711609,9e-08,0.0,0.0,0.0,9e-08,0.0,0.0,0.0,9e-08
1560469596072153315,33116,1560469596069158464,base_link,-0.0022256918463,0.00148396246561,-0.60077490801,-0.799413784759,1.0,0.0,0.0,0.0,1.0,0.0,0.0,0.0,1.0,-0.000249769393122,0.00165495916735,-0.00279499450698,1.21846967915e-07,0.0,0.0,0.0,1.21846967915e-07,0.0,0.0,0.0,1.21846967915e-07,0.059629663825,0.0342842750251,9.78746891022,9e-08,0.0,0.0,0.0,9e-08,0.0,0.0,0.0,9e-08
1560469596091634808,33117,1560469596089158464,base_link,-0.00222739998727,0.00148118978744,-0.600762116442,-0.799423373167,1.0,0.0,0.0,0.0,1.0,0.0,0.0,0.0,1.0,0.000612740637735,-0.000895067700185,-0.00194278242998,1.21846967915e-07,0.0,0.0,0.0,1.21846967915e-07,0.0,0.0,0.0,1.21846967915e-07,0.0382840707898,0.0114927664399,9.79428195953,9e-08,0.0,0.0,0.0,9e-08,0.0,0.0,0.0,9e-08
1560469596111625262,33118,1560469596109156416,base_link,-0.00222639727094,0.00147305256454,-0.600744646573,-0.799436459763,1.0,0.0,0.0,0.0,1.0,0.0,0.0,0.0,1.0,0.00080680870451,0.000162489828654,-0.00333246495575,1.21846967915e-07,0.0,0.0,0.0,1.21846967915e-07,0.0,0.0,0.0,1.21846967915e-07,0.0279503539205,0.0550904721022,9.77949428558,9e-08,0.0,0.0,0.0,9e-08,0.0,0.0,0.0,9e-08
1560469596132436627,33119,1560469596129156416,base_link,-0.00222189249724,0.00147897123331,-0.600730927774,-0.799446806815,1.0,0.0,0.0,0.0,1.0,0.0,0.0,0.0,1.0,0.000193255371414,0.00272223120555,-0.00195298122708,1.21846967915e-07,0.0,0.0,0.0,1.21846967915e-07,0.0,0.0,0.0,1.21846967915e-07,0.0541542097926,0.0171198733151,9.81022167206,9e-08,0.0,0.0,0.0,9e-08,0.0,0.0,0.0,9e-08
1560469596151660340,33120,1560469596149156416,base_link,-0.00222691040059,0.00147773798524,-0.600722245523,-0.799453297429,1.0,0.0,0.0,0.0,1.0,0.0,0.0,0.0,1.0,0.000428996514529,-0.00257750903256,0.00030680175405,1.21846967915e-07,0.0,0.0,0.0,1.21846967915e-07,0.0,0.0,0.0,1.21846967915e-07,0.0731269940734,0.0366904363036,9.81227397919,9e-08,0.0,0.0,0.0,9e-08,0.0,0.0,0.0,9e-08
1560469596172107804,33121,1560469596169156416,base_link,-0.00221888607692,0.00147088183721,-0.600708568871,-0.799463686627,1.0,0.0,0.0,0.0,1.0,0.0,0.0,0.0,1.0,-0.00256454246119,0.00208987132646,-0.000952331582084,1.21846967915e-07,0.0,0.0,0.0,1.21846967915e-07,0.0,0.0,0.0,1.21846967915e-07,0.0791736543179,-0.00924548506737,9.8174571991,9e-08,0.0,0.0,0.0,9e-08,0.0,0.0,0.0,9e-08
1560469596191773363,33122,1560469596189156416,base_link,-0.00221414414487,0.00146526519342,-0.600696662386,-0.799472642833,1.0,0.0,0.0,0.0,1.0,0.0,0.0,0.0,1.0,0.000621132086962,-0.00387573125772,-0.0013895961456,1.21846967915e-07,0.0,0.0,0.0,1.21846967915e-07,0.0,0.0,0.0,1.21846967915e-07,0.0263652056456,-0.0199998915195,9.81955242157,9e-08,0.0,0.0,0.0,9e-08,0.0,0.0,0.0,9e-08
1560469596212200410,33123,1560469596209154368,base_link,-0.00222495481152,0.00145920954739,-0.600678655145,-0.799486182508,1.0,0.0,0.0,0.0,1.0,0.0,0.0,0.0,1.0,-0.000257976644207,0.0022903252393,-0.00332572869956,1.21846967915e-07,0.0,0.0,0.0,1.21846967915e-07,0.0,0.0,0.0,1.21846967915e-07,0.0209816023707,0.0331140495837,9.88164234161,9e-08,0.0,0.0,0.0,9e-08,0.0,0.0,0.0,9e-08
1560469596231534363,33124,1560469596229154368,base_link,-0.00221607726112,0.0014538319141,-0.600663714087,-0.799497414643,1.0,0.0,0.0,0.0,1.0,0.0,0.0,0.0,1.0,0.00199430575594,-0.00185389618855,-0.00195198715664,1.21846967915e-07,0.0,0.0,0.0,1.21846967915e-07,0.0,0.0,0.0,1.21846967915e-07,0.0179727673531,0.00162541121245,9.76151275635,9e-08,0.0,0.0,0.0,9e-08,0.0,0.0,0.0,9e-08
1560469596251704112,33125,1560469596249154368,base_link,-0.0022284514359,0.00145529902779,-0.600657950506,-0.799501660938,1.0,0.0,0.0,0.0,1.0,0.0,0.0,0.0,1.0,-0.00129911990371,0.000704962119926,-0.00128280289937,1.21846967915e-07,0.0,0.0,0.0,1.21846967915e-07,0.0,0.0,0.0,1.21846967915e-07,0.02084120363,0.00151114910841,9.83244609833,9e-08,0.0,0.0,0.0,9e-08,0.0,0.0,0.0,9e-08
1560469596271660148,33126,1560469596269154368,base_link,-0.0022148868596,0.00145127783154,-0.600649510599,-0.799508162089,1.0,0.0,0.0,0.0,1.0,0.0,0.0,0.0,1.0,0.000102911115391,0.00156361283734,-0.000239393441007,1.21846967915e-07,0.0,0.0,0.0,1.21846967915e-07,0.0,0.0,0.0,1.21846967915e-07,0.0242889598012,0.0323174893856,9.806640625,9e-08,0.0,0.0,0.0,9e-08,0.0,0.0,0.0,9e-08
1560469596291719297,33127,1560469596289154368,base_link,-0.00221520621253,0.00145814879683,-0.600636582053,-0.799517803181,1.0,0.0,0.0,0.0,1.0,0.0,0.0,0.0,1.0,-1.43905926961e-05,0.00102358462755,-0.00098381540738,1.21846967915e-07,0.0,0.0,0.0,1.21846967915e-07,0.0,0.0,0.0,1.21846967915e-07,0.079128921032,0.00915112346411,9.84377098083,9e-08,0.0,0.0,0.0,9e-08,0.0,0.0,0.0,9e-08
1560469596311460496,33128,1560469596309154368,base_link,-0.00220744032642,0.00145454194856,-0.600626013731,-0.799525758399,1.0,0.0,0.0,0.0,1.0,0.0,0.0,0.0,1.0,0.00039777852362,6.55467156321e-05,-0.00193984224461,1.21846967915e-07,0.0,0.0,0.0,1.21846967915e-07,0.0,0.0,0.0,1.21846967915e-07,0.0375607311726,0.00268450379372,9.80201435089,9e-08,0.0,0.0,0.0,9e-08,0.0,0.0,0.0,9e-08
1560469596330734987,33129,1560469596325154368,base_link,-0.00221412624069,0.00145933347724,-0.600617731875,-0.799531932912,1.0,0.0,0.0,0.0,1.0,0.0,0.0,0.0,1.0,0.00147458899301,-0.00142285099719,-0.000989674124867,1.21846967915e-07,0.0,0.0,0.0,1.21846967915e-07,0.0,0.0,0.0,1.21846967915e-07,0.06130938977,-0.00326751172542,9.82867622375,9e-08,0.0,0.0,0.0,9e-08,0.0,0.0,0.0,9e-08
1560469596354162111,33130,1560469596350154368,base_link,-0.00220783211924,0.00146192065165,-0.600603739122,-0.799542553918,1.0,0.0,0.0,0.0,1.0,0.0,0.0,0.0,1.0,-0.000446486461442,-0.00122539536096,-0.000965314684436,1.21846967915e-07,0.0,0.0,0.0,1.21846967915e-07,0.0,0.0,0.0,1.21846967915e-07,0.0580520629883,0.0415299981833,9.82705783844,9e-08,0.0,0.0,0.0,9e-08,0.0,0.0,0.0,9e-08
1560469596370601600,33131,1560469596366154368,base_link,-0.00221217682547,0.0014674534545,-0.600598892234,-0.7995461364,1.0,0.0,0.0,0.0,1.0,0.0,0.0,0.0,1.0,0.00116729922593,-0.00120233674534,-0.000140407821164,1.21846967915e-07,0.0,0.0,0.0,1.21846967915e-07,0.0,0.0,0.0,1.21846967915e-07,0.0576049238443,0.0163235254586,9.83382606506,9e-08,0.0,0.0,0.0,9e-08,0.0,0.0,0.0,9e-08
1560469596394382376,33132,1560469596390154368,base_link,-0.00221009755351,0.00146438718895,-0.600582802675,-0.799558264155,1.0,0.0,0.0,0.0,1.0,0.0,0.0,0.0,1.0,0.00124738411978,0.00207985029556,-0.00238411780447,1.21846967915e-07,0.0,0.0,0.0,1.21846967915e-07,0.0,0.0,0.0,1.21846967915e-07,0.0558879822493,0.0131180174649,9.77844524384,9e-08,0.0,0.0,0.0,9e-08,0.0,0.0,0.0,9e-08
1560469596412488750,33133,1560469596406152064,base_link,-0.00221480536472,0.00146141003271,-0.60056942105,-0.799568189738,1.0,0.0,0.0,0.0,1.0,0.0,0.0,0.0,1.0,0.00125272385776,-0.000255477963947,-0.00163126341067,1.21846967915e-07,0.0,0.0,0.0,1.21846967915e-07,0.0,0.0,0.0,1.21846967915e-07,0.0413827449083,-0.0192734897137,9.76029491425,9e-08,0.0,0.0,0.0,9e-08,0.0,0.0,0.0,9e-08
1560469596433761129,33134,1560469596430152064,base_link,-0.00221360911862,0.0014610754921,-0.600558842191,-0.799576155493,1.0,0.0,0.0,0.0,1.0,0.0,0.0,0.0,1.0,-0.000347971741576,0.000166262383573,-0.00203797104768,1.21846967915e-07,0.0,0.0,0.0,1.21846967915e-07,0.0,0.0,0.0,1.21846967915e-07,0.0787601917982,-0.0114205703139,9.81272792816,9e-08,0.0,0.0,0.0,9e-08,0.0,0.0,0.0,9e-08
1560469596451670803,33135,1560469596446152064,base_link,-0.00221120053324,0.00146980017785,-0.60055070785,-0.799582266786,1.0,0.0,0.0,0.0,1.0,0.0,0.0,0.0,1.0,-0.000773721549194,-4.42758500867e-05,-0.00192488823086,1.21846967915e-07,0.0,0.0,0.0,1.21846967915e-07,0.0,0.0,0.0,1.21846967915e-07,0.0414202660322,0.0235350094736,9.76219463348,9e-08,0.0,0.0,0.0,9e-08,0.0,0.0,0.0,9e-08
1560469596473147844,33136,1560469596466152064,base_link,-0.00221131705446,0.00146771954764,-0.600545924182,-0.799585870341,1.0,0.0,0.0,0.0,1.0,0.0,0.0,0.0,1.0,0.00138831639197,0.00103222555481,0.00059532863088,1.21846967915e-07,0.0,0.0,0.0,1.21846967915e-07,0.0,0.0,0.0,1.21846967915e-07,0.0646345242858,0.0239641554654,9.75195121765,9e-08,0.0,0.0,0.0,9e-08,0.0,0.0,0.0,9e-08
1560469596492759228,33137,1560469596490152064,base_link,-0.00222055421132,0.00146008956865,-0.600532395044,-0.799596027732,1.0,0.0,0.0,0.0,1.0,0.0,0.0,0.0,1.0,0.00199127523229,-0.000364164297935,-0.00206690072082,1.21846967915e-07,0.0,0.0,0.0,1.21846967915e-07,0.0,0.0,0.0,1.21846967915e-07,0.0555908977985,-0.00516887009144,9.823346138,9e-08,0.0,0.0,0.0,9e-08,0.0,0.0,0.0,9e-08
1560469596511820225,33138,1560469596506150016,base_link,-0.00221935092703,0.00145938735441,-0.600523101664,-0.799603045182,1.0,0.0,0.0,0.0,1.0,0.0,0.0,0.0,1.0,0.00102999538649,-0.000259528460447,-0.00237885466777,1.21846967915e-07,0.0,0.0,0.0,1.21846967915e-07,0.0,0.0,0.0,1.21846967915e-07,0.0522861778736,-0.00888293236494,9.79563522339,9e-08,0.0,0.0,0.0,9e-08,0.0,0.0,0.0,9e-08
1560469596532556186,33139,1560469596530150016,base_link,-0.00222529647264,0.00146547638041,-0.600504399,-0.799617111693,1.0,0.0,0.0,0.0,1.0,0.0,0.0,0.0,1.0,0.00199467944913,-0.0014276271686,-0.00185378966853,1.21846967915e-07,0.0,0.0,0.0,1.21846967915e-07,0.0,0.0,0.0,1.21846967915e-07,0.0644951984286,0.0153317973018,9.7821598053,9e-08,0.0,0.0,0.0,9e-08,0.0,0.0,0.0,9e-08
1560469596550657001,33140,1560469596546150016,base_link,-0.00222504013419,0.001470188431,-0.600497002228,-0.79962256971,1.0,0.0,0.0,0.0,1.0,0.0,0.0,0.0,1.0,-0.00150594045408,0.00102410989348,-0.000967481872067,1.21846967915e-07,0.0,0.0,0.0,1.21846967915e-07,0.0,0.0,0.0,1.21846967915e-07,0.0787984877825,0.00454104691744,9.8188791275,9e-08,0.0,0.0,0.0,9e-08,0.0,0.0,0.0,9e-08
1560469596572206896,33141,1560469596566150016,base_link,-0.00221958849696,0.00147312640384,-0.600488225147,-0.799629239448,1.0,0.0,0.0,0.0,1.0,0.0,0.0,0.0,1.0,-0.0012096996652,-0.000899388454854,-0.00245403777808,1.21846967915e-07,0.0,0.0,0.0,1.21846967915e-07,0.0,0.0,0.0,1.21846967915e-07,0.0523025691509,0.0264809541404,9.8284406662,9e-08,0.0,0.0,0.0,9e-08,0.0,0.0,0.0,9e-08
1560469596590662838,33142,1560469596586150016,base_link,-0.00221866760478,0.00146762780416,-0.600479795777,-0.799635561476,1.0,0.0,0.0,0.0,1.0,0.0,0.0,0.0,1.0,-0.000548464129679,0.000387354113627,-0.000977267278358,1.21846967915e-07,0.0,0.0,0.0,1.21846967915e-07,0.0,0.0,0.0,1.21846967915e-07,0.0669632032514,0.00218074768782,9.82498168945,9e-08,0.0,0.0,0.0,9e-08,0.0,0.0,0.0,9e-08
1560469596611658687,33143,1560469596606147968,base_link,-0.00221574111531,0.00146680487048,-0.600472262028,-0.79964115647,1.0,0.0,0.0,0.0,1.0,0.0,0.0,0.0,1.0,-0.00140395422932,-0.00100083742291,-0.00117124523968,1.21846967915e-07,0.0,0.0,0.0,1.21846967915e-07,0.0,0.0,0.0,1.21846967915e-07,0.0346894338727,0.0182006508112,9.79575061798,9e-08,0.0,0.0,0.0,9e-08,0.0,0.0,0.0,9e-08
1560469596633344560,33144,1560469596630147968,base_link,-0.00222066336507,0.00146406306158,-0.600457552778,-0.799652241091,1.0,0.0,0.0,0.0,1.0,0.0,0.0,0.0,1.0,-0.00109239679296,0.000700544798747,-0.00182307744399,1.21846967915e-07,0.0,0.0,0.0,1.21846967915e-07,0.0,0.0,0.0,1.21846967915e-07,0.0635365024209,0.00197438150644,9.78245067596,9e-08,0.0,0.0,0.0,9e-08,0.0,0.0,0.0,9e-08
1560469596652904480,33145,1560469596650147968,base_link,-0.00221815389891,0.00146746650191,-0.600447279483,-0.799659985574,1.0,0.0,0.0,0.0,1.0,0.0,0.0,0.0,1.0,0.00147568597458,-0.00206155562773,-0.000778189336415,1.21846967915e-07,0.0,0.0,0.0,1.21846967915e-07,0.0,0.0,0.0,1.21846967915e-07,0.0543880462646,0.00396664440632,9.80951023102,9e-08,0.0,0.0,0.0,9e-08,0.0,0.0,0.0,9e-08
1560469596673237621,33146,1560469596670147968,base_link,-0.00222135557767,0.00147648839703,-0.600433033848,-0.79967060658,1.0,0.0,0.0,0.0,1.0,0.0,0.0,0.0,1.0,-0.00193414068781,-0.000894148368388,-0.00106505712029,1.21846967915e-07,0.0,0.0,0.0,1.21846967915e-07,0.0,0.0,0.0,1.21846967915e-07,0.0843002349138,0.0290839448571,9.85403633118,9e-08,0.0,0.0,0.0,9e-08,0.0,0.0,0.0,9e-08
1560469596693099372,33147,1560469596690147968,base_link,-0.00221418493347,0.00146852799334,-0.600418588016,-0.799681512077,1.0,0.0,0.0,0.0,1.0,0.0,0.0,0.0,1.0,-0.000884226232301,0.00155499565881,-0.00193188688718,1.21846967915e-07,0.0,0.0,0.0,1.21846967915e-07,0.0,0.0,0.0,1.21846967915e-07,0.0422746390104,-0.000537231564521,9.76278495789,9e-08,0.0,0.0,0.0,9e-08,0.0,0.0,0.0,9e-08
1560469596710913932,33148,1560469596707145408,base_link,-0.00221705919214,0.00146885228535,-0.60041104373,-0.799687117608,1.0,0.0,0.0,0.0,1.0,0.0,0.0,0.0,1.0,0.000408172578318,6.09116395935e-05,-0.000988420564681,1.21846967915e-07,0.0,0.0,0.0,1.21846967915e-07,0.0,0.0,0.0,1.21846967915e-07,0.059213206172,0.0101307108998,9.7866153717,9e-08,0.0,0.0,0.0,9e-08,0.0,0.0,0.0,9e-08
1560469596730853390,33149,1560469596727145408,base_link,-0.00221289846678,0.00146452568909,-0.600397324931,-0.799697464659,1.0,0.0,0.0,0.0,1.0,0.0,0.0,0.0,1.0,-3.2037118217e-05,0.000486717792228,-0.00204934040084,1.21846967915e-07,0.0,0.0,0.0,1.21846967915e-07,0.0,0.0,0.0,1.21846967915e-07,0.0343810394406,-0.0295733585954,9.84643936157,9e-08,0.0,0.0,0.0,9e-08,0.0,0.0,0.0,9e-08
1560469596754604976,33150,1560469596751145408,base_link,-0.00221944299978,0.00146911187536,-0.600379391447,-0.799710930577,1.0,0.0,0.0,0.0,1.0,0.0,0.0,0.0,1.0,0.000514167535584,0.000596811645664,-0.00110117159784,1.21846967915e-07,0.0,0.0,0.0,1.21846967915e-07,0.0,0.0,0.0,1.21846967915e-07,0.0514560043812,0.0431162714958,9.84179782867,9e-08,0.0,0.0,0.0,9e-08,0.0,0.0,0.0,9e-08
1560469596770787407,33151,1560469596767145408,base_link,-0.00221646946553,0.00145807355812,-0.600369529084,-0.799718348423,1.0,0.0,0.0,0.0,1.0,0.0,0.0,0.0,1.0,0.00222458923236,0.000707966915797,-0.000272364355624,1.21846967915e-07,0.0,0.0,0.0,1.21846967915e-07,0.0,0.0,0.0,1.21846967915e-07,0.0242566838861,0.0296566970646,9.80153846741,9e-08,0.0,0.0,0.0,9e-08,0.0,0.0,0.0,9e-08
1560469596793976717,33152,1560469596791145408,base_link,-0.00222595164211,0.00146867665976,-0.600356453025,-0.799728052735,1.0,0.0,0.0,0.0,1.0,0.0,0.0,0.0,1.0,0.000186383811524,-0.00206722458825,-0.00192849256564,1.21846967915e-07,0.0,0.0,0.0,1.21846967915e-07,0.0,0.0,0.0,1.21846967915e-07,0.0439862832427,-0.00503561645746,9.78825569153,9e-08,0.0,0.0,0.0,9e-08,0.0,0.0,0.0,9e-08
1560469596813622485,33153,1560469596811143360,base_link,-0.00222067283165,0.00146968217491,-0.60034605329,-0.799735923659,1.0,0.0,0.0,0.0,1.0,0.0,0.0,0.0,1.0,-0.00259249052033,-4.76011337014e-05,-0.00233279541135,1.21846967915e-07,0.0,0.0,0.0,1.21846967915e-07,0.0,0.0,0.0,1.21846967915e-07,0.0577158406377,0.0144566856325,9.81162548065,9e-08,0.0,0.0,0.0,9e-08,0.0,0.0,0.0,9e-08
1560469596831921649,33154,1560469596827143360,base_link,-0.00222924098961,0.00147548806793,-0.600337371039,-0.799742414273,1.0,0.0,0.0,0.0,1.0,0.0,0.0,0.0,1.0,0.00190704979468,-0.00163495598827,-0.000574044766836,1.21846967915e-07,0.0,0.0,0.0,1.21846967915e-07,0.0,0.0,0.0,1.21846967915e-07,0.0432087182999,0.0258346833289,9.82744884491,9e-08,0.0,0.0,0.0,9e-08,0.0,0.0,0.0,9e-08
1560469596851821944,33155,1560469596847143360,base_link,-0.00223126494383,0.00147632977013,-0.600328857376,-0.799748904888,1.0,0.0,0.0,0.0,1.0,0.0,0.0,0.0,1.0,-0.000457243237179,0.0035713231191,-0.00195122754667,1.21846967915e-07,0.0,0.0,0.0,1.21846967915e-07,0.0,0.0,0.0,1.21846967915e-07,0.0818171724677,0.0388130135834,9.83266353607,9e-08,0.0,0.0,0.0,9e-08,0.0,0.0,0.0,9e-08
1560469596870602289,33156,1560469596867143360,base_link,-0.00222724201891,0.00147369941988,-0.600321102356,-0.799754721153,1.0,0.0,0.0,0.0,1.0,0.0,0.0,0.0,1.0,0.00145913520828,-0.000469732098281,-0.00185122899711,1.21846967915e-07,0.0,0.0,0.0,1.21846967915e-07,0.0,0.0,0.0,1.21846967915e-07,0.0483404546976,-0.0170121341944,9.79871177673,9e-08,0.0,0.0,0.0,9e-08,0.0,0.0,0.0,9e-08
1560469596893165534,33157,1560469596891143360,base_link,-0.00223620736152,0.00146342917133,-0.600303864295,-0.799767491648,1.0,0.0,0.0,0.0,1.0,0.0,0.0,0.0,1.0,0.00136459898204,0.00251386174932,-0.000901099061593,1.21846967915e-07,0.0,0.0,0.0,1.21846967915e-07,0.0,0.0,0.0,1.21846967915e-07,0.0591060966253,-0.00641013681888,9.82090854645,9e-08,0.0,0.0,0.0,9e-08,0.0,0.0,0.0,9e-08
1560469596914265379,33158,1560469596911140544,base_link,-0.0022317202862,0.00146355602346,-0.600293422413,-0.799775489013,1.0,0.0,0.0,0.0,1.0,0.0,0.0,0.0,1.0,-1.48756953422e-06,-0.000672515074257,0.000406480277888,1.21846967915e-07,0.0,0.0,0.0,1.21846967915e-07,0.0,0.0,0.0,1.21846967915e-07,0.0227272510529,-0.0328730717301,9.77050209045,9e-08,0.0,0.0,0.0,9e-08,0.0,0.0,0.0,9e-08
1560469596930965661,33159,1560469596927140544,base_link,-0.00224027597297,0.00146382055256,-0.60028199008,-0.799783971066,1.0,0.0,0.0,0.0,1.0,0.0,0.0,0.0,1.0,0.00228562369011,-0.000691669294611,-0.00366793852299,1.21846967915e-07,0.0,0.0,0.0,1.21846967915e-07,0.0,0.0,0.0,1.21846967915e-07,0.0551076754928,-0.0173492208123,9.84120368958,9e-08,0.0,0.0,0.0,9e-08,0.0,0.0,0.0,9e-08
1560469596952291403,33160,1560469596947140544,base_link,-0.002230849855,0.00146663587149,-0.600270568284,-0.799792526876,1.0,0.0,0.0,0.0,1.0,0.0,0.0,0.0,1.0,-0.000128380779643,0.00123333826195,-0.000885201443452,1.21846967915e-07,0.0,0.0,0.0,1.21846967915e-07,0.0,0.0,0.0,1.21846967915e-07,0.0338355600834,-0.00445248931646,9.78293228149,9e-08,0.0,0.0,0.0,9e-08,0.0,0.0,0.0,9e-08
1560469596971064882,33161,1560469596967140544,base_link,-0.00224166422595,0.00147283071736,-0.600267122779,-0.799795129444,1.0,0.0,0.0,0.0,1.0,0.0,0.0,0.0,1.0,0.00210997532122,-0.00133148115128,-0.00132171355654,1.21846967915e-07,0.0,0.0,0.0,1.21846967915e-07,0.0,0.0,0.0,1.21846967915e-07,0.0601515173912,0.0140543729067,9.85194301605,9e-08,0.0,0.0,0.0,9e-08,0.0,0.0,0.0,9e-08
1560469596994392231,33162,1560469596991140544,base_link,-0.00222924127772,0.00147088323661,-0.600256670361,-0.799802968758,1.0,0.0,0.0,0.0,1.0,0.0,0.0,0.0,1.0,-0.00023278297158,0.00103101297282,-0.00130200665444,1.21846967915e-07,0.0,0.0,0.0,1.21846967915e-07,0.0,0.0,0.0,1.21846967915e-07,0.0338157936931,0.0533433333039,9.74622154236,9e-08,0.0,0.0,0.0,9e-08,0.0,0.0,0.0,9e-08
1560469597010774979,33163,1560469597007138752,base_link,-0.0022272100795,0.00147826840168,-0.600252350309,-0.799806277285,1.0,0.0,0.0,0.0,1.0,0.0,0.0,0.0,1.0,0.000195188156795,-0.000465660676127,-0.000768054800574,1.21846967915e-07,0.0,0.0,0.0,1.21846967915e-07,0.0,0.0,0.0,1.21846967915e-07,0.0611373111606,0.0163451842964,9.82853889465,9e-08,0.0,0.0,0.0,9e-08,0.0,0.0,0.0,9e-08
1560469597034073859,33164,1560469597031138752,base_link,-0.00223047740692,0.00148531914961,-0.60023715637,-0.799817593714,1.0,0.0,0.0,0.0,1.0,0.0,0.0,0.0,1.0,0.000400679447921,0.000382151978556,-0.00130674650427,1.21846967915e-07,0.0,0.0,0.0,1.21846967915e-07,0.0,0.0,0.0,1.21846967915e-07,0.0781589001417,-0.0165926814079,9.81635093689,9e-08,0.0,0.0,0.0,9e-08,0.0,0.0,0.0,9e-08
1560469597050745504,33165,1560469597047138752,base_link,-0.00223791200398,0.00149096357575,-0.600226545901,-0.799825591079,1.0,0.0,0.0,0.0,1.0,0.0,0.0,0.0,1.0,0.000508525059558,-0.00163782923482,-0.00119112094399,1.21846967915e-07,0.0,0.0,0.0,1.21846967915e-07,0.0,0.0,0.0,1.21846967915e-07,0.0684752836823,-0.0108481422067,9.80821418762,9e-08,0.0,0.0,0.0,9e-08,0.0,0.0,0.0,9e-08
1560469597074084469,33166,1560469597071138752,base_link,-0.0022379104811,0.0014941531126,-0.600206673662,-0.79984048999,1.0,0.0,0.0,0.0,1.0,0.0,0.0,0.0,1.0,-0.000343564373907,0.000914545962587,-0.00140863400884,1.21846967915e-07,0.0,0.0,0.0,1.21846967915e-07,0.0,0.0,0.0,1.21846967915e-07,0.0203521624207,-0.00118432939052,9.84006404877,9e-08,0.0,0.0,0.0,9e-08,0.0,0.0,0.0,9e-08
1560469597093778508,33167,1560469597091138752,base_link,-0.00224571452163,0.00149390323612,-0.600191880118,-0.799851490317,1.0,0.0,0.0,0.0,1.0,0.0,0.0,0.0,1.0,0.000390192493796,-0.000152790220454,-0.00204918091185,1.21846967915e-07,0.0,0.0,0.0,1.21846967915e-07,0.0,0.0,0.0,1.21846967915e-07,0.0443378835917,0.0073224157095,9.81840515137,9e-08,0.0,0.0,0.0,9e-08,0.0,0.0,0.0,9e-08
1560469597114403202,33168,1560469597111135168,base_link,-0.00224018390022,0.00149692216878,-0.600186327271,-0.799855694465,1.0,0.0,0.0,0.0,1.0,0.0,0.0,0.0,1.0,5.18912565894e-06,-0.000457390764495,0.000722068245523,1.21846967915e-07,0.0,0.0,0.0,1.21846967915e-07,0.0,0.0,0.0,1.21846967915e-07,0.0301681682467,0.00481110066176,9.79683971405,9e-08,0.0,0.0,0.0,9e-08,0.0,0.0,0.0,9e-08
1560469597130307219,33169,1560469597127135168,base_link,-0.0022454395793,0.00149352325593,-0.600182133659,-0.799858792259,1.0,0.0,0.0,0.0,1.0,0.0,0.0,0.0,1.0,-0.000349871232174,-0.00109900301322,-0.0018241670914,1.21846967915e-07,0.0,0.0,0.0,1.21846967915e-07,0.0,0.0,0.0,1.21846967915e-07,0.0619694888592,0.0149670466781,9.78568935394,9e-08,0.0,0.0,0.0,9e-08,0.0,0.0,0.0,9e-08
1560469597154537618,33170,1560469597151135168,base_link,-0.00224510973082,0.00150011388705,-0.600169141893,-0.799868496571,1.0,0.0,0.0,0.0,1.0,0.0,0.0,0.0,1.0,-2.95523786917e-05,0.00016900736955,-0.00162023620214,1.21846967915e-07,0.0,0.0,0.0,1.21846967915e-07,0.0,0.0,0.0,1.21846967915e-07,0.0531376674771,0.00810544192791,9.79789161682,9e-08,0.0,0.0,0.0,9e-08,0.0,0.0,0.0,9e-08
1560469597170407538,33171,1560469597167135168,base_link,-0.00224860771345,0.00149855301309,-0.600161871562,-0.799873996734,1.0,0.0,0.0,0.0,1.0,0.0,0.0,0.0,1.0,-0.000348629895598,-0.000149864135892,-0.00140142603777,1.21846967915e-07,0.0,0.0,0.0,1.21846967915e-07,0.0,0.0,0.0,1.21846967915e-07,0.0626832842827,0.00634793192148,9.82829380035,9e-08,0.0,0.0,0.0,9e-08,0.0,0.0,0.0,9e-08
1560469597190726721,33172,1560469597188135168,base_link,-0.00225282029919,0.00150503914143,-0.600150871234,-0.799882299663,1.0,0.0,0.0,0.0,1.0,0.0,0.0,0.0,1.0,-0.000764146563597,-0.00216908170842,-0.000746426929254,1.21846967915e-07,0.0,0.0,0.0,1.21846967915e-07,0.0,0.0,0.0,1.21846967915e-07,0.0671958401799,0.0120193250477,9.81808757782,9e-08,0.0,0.0,0.0,9e-08,0.0,0.0,0.0,9e-08
1560469597211519578,33173,1560469597208132608,base_link,-0.00225302358365,0.00150519344664,-0.600144169886,-0.799887315138,1.0,0.0,0.0,0.0,1.0,0.0,0.0,0.0,1.0,-0.000985869555734,-0.00217390689068,-0.00159877806436,1.21846967915e-07,0.0,0.0,0.0,1.21846967915e-07,0.0,0.0,0.0,1.21846967915e-07,0.0357147827744,0.0300829596818,9.81082725525,9e-08,0.0,0.0,0.0,9e-08,0.0,0.0,0.0,9e-08
1560469597230563922,33174,1560469597228132608,base_link,-0.0022542718136,0.00150421126866,-0.600139186021,-0.799891118892,1.0,0.0,0.0,0.0,1.0,0.0,0.0,0.0,1.0,-0.000335547054419,0.000812310434412,-0.000553653924726,1.21846967915e-07,0.0,0.0,0.0,1.21846967915e-07,0.0,0.0,0.0,1.21846967915e-07,0.0494175702333,0.0196688920259,9.84138774872,9e-08,0.0,0.0,0.0,9e-08,0.0,0.0,0.0,9e-08
1560469597252200682,33175,1560469597248132608,base_link,-0.00225276300582,0.00150007042312,-0.600128838969,-0.799898768545,1.0,0.0,0.0,0.0,1.0,0.0,0.0,0.0,1.0,-0.00121024402324,-4.28556959378e-05,-0.00192278320901,1.21846967915e-07,0.0,0.0,0.0,1.21846967915e-07,0.0,0.0,0.0,1.21846967915e-07,0.0469185337424,-0.0076859742403,9.79509067535,9e-08,0.0,0.0,0.0,9e-08,0.0,0.0,0.0,9e-08
1560469597270548152,33176,1560469597268132608,base_link,-0.00225016689989,0.00150816735132,-0.600120272622,-0.799905227549,1.0,0.0,0.0,0.0,1.0,0.0,0.0,0.0,1.0,-0.00119888712652,0.000381711899536,-0.0013915420277,1.21846967915e-07,0.0,0.0,0.0,1.21846967915e-07,0.0,0.0,0.0,1.21846967915e-07,0.0506332665682,0.0399087667465,9.79032516479,9e-08,0.0,0.0,0.0,9e-08,0.0,0.0,0.0,9e-08
1560469597290507659,33177,1560469597288132608,base_link,-0.0022504378498,0.00150429021169,-0.600106785631,-0.799915342793,1.0,0.0,0.0,0.0,1.0,0.0,0.0,0.0,1.0,0.00039825469139,0.00016938126646,-0.00130545347929,1.21846967915e-07,0.0,0.0,0.0,1.21846967915e-07,0.0,0.0,0.0,1.21846967915e-07,0.0433254316449,0.016083765775,9.7759141922,9e-08,0.0,0.0,0.0,9e-08,0.0,0.0,0.0,9e-08
1560469597310887848,33178,1560469597308128768,base_link,-0.00224982964279,0.00151196723545,-0.600097123466,-0.799922560441,1.0,0.0,0.0,0.0,1.0,0.0,0.0,0.0,1.0,-0.00171744520776,-0.000249492790317,-0.0003194588935,1.21846967915e-07,0.0,0.0,0.0,1.21846967915e-07,0.0,0.0,0.0,1.21846967915e-07,0.038536503911,0.0297590233386,9.84763240814,9e-08,0.0,0.0,0.0,9e-08,0.0,0.0,0.0,9e-08
1560469597331357524,33179,1560469597328128768,base_link,-0.00224317570908,0.00151004494403,-0.600092508386,-0.799926079702,1.0,0.0,0.0,0.0,1.0,0.0,0.0,0.0,1.0,-0.000557263148949,0.000915985787287,-0.000973091693595,1.21846967915e-07,0.0,0.0,0.0,1.21846967915e-07,0.0,0.0,0.0,1.21846967915e-07,0.0456130281091,-0.0217215418816,9.84176826477,9e-08,0.0,0.0,0.0,9e-08,0.0,0.0,0.0,9e-08
1560469597350694293,33180,1560469597348128768,base_link,-0.00225379453347,0.00151249888666,-0.600081529132,-0.799934277264,1.0,0.0,0.0,0.0,1.0,0.0,0.0,0.0,1.0,-0.000123034507851,-0.000677828502376,-0.000443247379735,1.21846967915e-07,0.0,0.0,0.0,1.21846967915e-07,0.0,0.0,0.0,1.21846967915e-07,0.0733667910099,0.0210165530443,9.81477165222,9e-08,0.0,0.0,0.0,9e-08,0.0,0.0,0.0,9e-08
1560469597370956048,33181,1560469597368128768,base_link,-0.00225214059894,0.00151031910434,-0.600072256825,-0.799941189348,1.0,0.0,0.0,0.0,1.0,0.0,0.0,0.0,1.0,0.00156803044956,0.00165927910712,-0.00132660393137,1.21846967915e-07,0.0,0.0,0.0,1.21846967915e-07,0.0,0.0,0.0,1.21846967915e-07,0.0263385102153,0.000143967568876,9.83464336395,9e-08,0.0,0.0,0.0,9e-08,0.0,0.0,0.0,9e-08
1560469597390686532,33182,1560469597388128768,base_link,-0.00225576823252,0.00151424991535,-0.600068052677,-0.799944381971,1.0,0.0,0.0,0.0,1.0,0.0,0.0,0.0,1.0,0.000306658766931,-0.00173931627069,-0.000228373915888,1.21846967915e-07,0.0,0.0,0.0,1.21846967915e-07,0.0,0.0,0.0,1.21846967915e-07,0.0433346554637,-0.0275249183178,9.82206344604,9e-08,0.0,0.0,0.0,9e-08,0.0,0.0,0.0,9e-08
1560469597411569762,33183,1560469597408126208,base_link,-0.00224872205324,0.0015142579002,-0.600065049714,-0.799946626291,1.0,0.0,0.0,0.0,1.0,0.0,0.0,0.0,1.0,-0.000655850570183,0.000918425503187,-0.000444957870059,1.21846967915e-07,0.0,0.0,0.0,1.21846967915e-07,0.0,0.0,0.0,1.21846967915e-07,0.0495427176356,-0.00452515482902,9.85893249512,9e-08,0.0,0.0,0.0,9e-08,0.0,0.0,0.0,9e-08
1560469597430643755,33184,1560469597428126208,base_link,-0.00224434376124,0.00151731581046,-0.600055924921,-0.799953475154,1.0,0.0,0.0,0.0,1.0,0.0,0.0,0.0,1.0,0.00105059880298,-0.000462892552605,-3.3276504837e-05,1.21846967915e-07,0.0,0.0,0.0,1.21846967915e-07,0.0,0.0,0.0,1.21846967915e-07,0.0363722741604,0.0105037838221,9.80237388611,9e-08,0.0,0.0,0.0,9e-08,0.0,0.0,0.0,9e-08
1560469597451904892,33185,1560469597448126208,base_link,-0.00224192130527,0.00152372542416,-0.600043618042,-0.799962747461,1.0,0.0,0.0,0.0,1.0,0.0,0.0,0.0,1.0,-0.000135068039526,-4.40083131252e-05,-0.0012975698337,1.21846967915e-07,0.0,0.0,0.0,1.21846967915e-07,0.0,0.0,0.0,1.21846967915e-07,0.0380971208215,-0.017038166523,9.82204818726,9e-08,0.0,0.0,0.0,9e-08,0.0,0.0,0.0,9e-08
1560469597470522722,33186,1560469597468126208,base_link,-0.00224165694081,0.00152050839308,-0.600038433979,-0.799966582824,1.0,0.0,0.0,0.0,1.0,0.0,0.0,0.0,1.0,0.00211040629074,0.000598682789132,-0.000478175352328,1.21846967915e-07,0.0,0.0,0.0,1.21846967915e-07,0.0,0.0,0.0,1.21846967915e-07,0.0798411071301,0.0182323567569,9.84394931793,9e-08,0.0,0.0,0.0,9e-08,0.0,0.0,0.0,9e-08
1560469597491719682,33187,1560469597488126208,base_link,-0.00224689381021,0.00152014672867,-0.600025916365,-0.799975981571,1.0,0.0,0.0,0.0,1.0,0.0,0.0,0.0,1.0,0.00103265303187,-0.000152685504872,-0.00184159353375,1.21846967915e-07,0.0,0.0,0.0,1.21846967915e-07,0.0,0.0,0.0,1.21846967915e-07,0.0728697180748,0.0152216888964,9.83080005646,9e-08,0.0,0.0,0.0,9e-08,0.0,0.0,0.0,9e-08
1560469597511061894,33188,1560469597508123136,base_link,-0.00224614422192,0.00151999180607,-0.600013778073,-0.799985169584,1.0,0.0,0.0,0.0,1.0,0.0,0.0,0.0,1.0,0.00221640407108,-0.000259567750618,-0.00153464102186,1.21846967915e-07,0.0,0.0,0.0,1.21846967915e-07,0.0,0.0,0.0,1.21846967915e-07,0.0541813671589,0.0379583798349,9.80929756165,9e-08,0.0,0.0,0.0,9e-08,0.0,0.0,0.0,9e-08
1560469597531612577,33189,1560469597528123136,base_link,-0.00224675061794,0.00152868142433,-0.600001407973,-0.799994420817,1.0,0.0,0.0,0.0,1.0,0.0,0.0,0.0,1.0,0.00104517152067,-4.0195951442e-05,-0.00067262124503,1.21846967915e-07,0.0,0.0,0.0,1.21846967915e-07,0.0,0.0,0.0,1.21846967915e-07,0.0433785766363,0.00309035181999,9.86118221283,9e-08,0.0,0.0,0.0,9e-08,0.0,0.0,0.0,9e-08
1560469597551028504,33190,1560469597548123136,base_link,-0.002241044906,0.00152742006464,-0.599997804417,-0.799997097142,1.0,0.0,0.0,0.0,1.0,0.0,0.0,0.0,1.0,0.0011352840811,0.000700539676473,-0.00163534819148,1.21846967915e-07,0.0,0.0,0.0,1.21846967915e-07,0.0,0.0,0.0,1.21846967915e-07,0.0458343923092,-0.000548012554644,9.79311847687,9e-08,0.0,0.0,0.0,9e-08,0.0,0.0,0.0,9e-08
1560469597571787843,33191,1560469597568123136,base_link,-0.00224219134967,0.0015269058237,-0.599988121179,-0.800004420157,1.0,0.0,0.0,0.0,1.0,0.0,0.0,0.0,1.0,0.00146523467265,-0.00131893134676,-0.000886161869857,1.21846967915e-07,0.0,0.0,0.0,1.21846967915e-07,0.0,0.0,0.0,1.21846967915e-07,0.022904843092,0.0193918347359,9.78810405731,9e-08,0.0,0.0,0.0,9e-08,0.0,0.0,0.0,9e-08
1560469597590983155,33192,1560469597588123136,base_link,-0.00223934396786,0.00153043776253,-0.599985908469,-0.800006042811,1.0,0.0,0.0,0.0,1.0,0.0,0.0,0.0,1.0,0.000399335316615,0.000915330310818,-0.000989298336208,1.21846967915e-07,0.0,0.0,0.0,1.21846967915e-07,0.0,0.0,0.0,1.21846967915e-07,0.0915794298053,0.0077063292265,9.82933521271,9e-08,0.0,0.0,0.0,9e-08,0.0,0.0,0.0,9e-08
1560469597611866321,33193,1560469597608121344,base_link,-0.00223863841973,0.00153152263229,-0.599983990788,-0.800007539024,1.0,0.0,0.0,0.0,1.0,0.0,0.0,0.0,1.0,0.000931178918108,-0.000148617982632,-0.000992878689431,1.21846967915e-07,0.0,0.0,0.0,1.21846967915e-07,0.0,0.0,0.0,1.21846967915e-07,0.0737300217152,-0.008714415133,9.77755260468,9e-08,0.0,0.0,0.0,9e-08,0.0,0.0,0.0,9e-08
1560469597630728414,33194,1560469597628121344,base_link,-0.00223341044068,0.00153262351292,-0.599969249927,-0.800018570961,1.0,0.0,0.0,0.0,1.0,0.0,0.0,0.0,1.0,-0.00110975001007,0.00186651211698,-0.00225066998973,1.21846967915e-07,0.0,0.0,0.0,1.21846967915e-07,0.0,0.0,0.0,1.21846967915e-07,0.0326477661729,0.00329817086458,9.8030796051,9e-08,0.0,0.0,0.0,9e-08,0.0,0.0,0.0,9e-08
1560469597651663895,33195,1560469597648121344,base_link,-0.00223363932606,0.00153177098589,-0.59995289695,-0.800030709254,1.0,0.0,0.0,0.0,1.0,0.0,0.0,0.0,1.0,5.85396483075e-05,-0.000370301713701,-0.00246713776141,1.21846967915e-07,0.0,0.0,0.0,1.21846967915e-07,0.0,0.0,0.0,1.21846967915e-07,0.0619418695569,-0.0100803226233,9.78576278687,9e-08,0.0,0.0,0.0,9e-08,0.0,0.0,0.0,9e-08
1560469597670615265,33196,1560469597668121344,base_link,-0.00224607853211,0.00153927744662,-0.599943972355,-0.800037442213,1.0,0.0,0.0,0.0,1.0,0.0,0.0,0.0,1.0,0.000279499625321,-0.000366594933439,-0.00193918147124,1.21846967915e-07,0.0,0.0,0.0,1.21846967915e-07,0.0,0.0,0.0,1.21846967915e-07,0.0622846111655,0.0421758703887,9.85049915314,9e-08,0.0,0.0,0.0,9e-08,0.0,0.0,0.0,9e-08
1560469597692106745,33197,1560469597689121344,base_link,-0.00223856013526,0.00153177641888,-0.599930685561,-0.800047441553,1.0,0.0,0.0,0.0,1.0,0.0,0.0,0.0,1.0,-0.000248256663326,0.000380426354241,-0.00151032744907,1.21846967915e-07,0.0,0.0,0.0,1.21846967915e-07,0.0,0.0,0.0,1.21846967915e-07,0.0478506237268,-0.0158974826336,9.76579475403,9e-08,0.0,0.0,0.0,9e-08,0.0,0.0,0.0,9e-08
1560469597711195041,33198,1560469597709119552,base_link,-0.0022399983553,0.00153534083219,-0.599921982237,-0.800053953241,1.0,0.0,0.0,0.0,1.0,0.0,0.0,0.0,1.0,-0.00139541749377,-0.000466330529889,-3.39688267559e-06,1.21846967915e-07,0.0,0.0,0.0,1.21846967915e-07,0.0,0.0,0.0,1.21846967915e-07,0.0861272513866,0.0205027759075,9.82037448883,9e-08,0.0,0.0,0.0,9e-08,0.0,0.0,0.0,9e-08
1560469597731863720,33199,1560469597729119552,base_link,-0.00223092727514,0.0015358788219,-0.599911129423,-0.800062108656,1.0,0.0,0.0,0.0,1.0,0.0,0.0,0.0,1.0,-0.000894920784049,5.45288130525e-05,-0.00235386099666,1.21846967915e-07,0.0,0.0,0.0,1.21846967915e-07,0.0,0.0,0.0,1.21846967915e-07,0.029232814908,0.0023340061307,9.80181026459,9e-08,0.0,0.0,0.0,9e-08,0.0,0.0,0.0,9e-08
1560469597751545281,33200,1560469597749119552,base_link,-0.00223648938321,0.0015443002479,-0.599897368477,-0.80007241356,1.0,0.0,0.0,0.0,1.0,0.0,0.0,0.0,1.0,-0.000353981449734,-0.00121757644229,-0.00181713455822,1.21846967915e-07,0.0,0.0,0.0,1.21846967915e-07,0.0,0.0,0.0,1.21846967915e-07,0.0701008290052,0.0096100717783,9.82399272919,9e-08,0.0,0.0,0.0,9e-08,0.0,0.0,0.0,9e-08
1560469597771697313,33201,1560469597769119552,base_link,-0.00222637383087,0.00154454355952,-0.599883533774,-0.800082792222,1.0,0.0,0.0,0.0,1.0,0.0,0.0,0.0,1.0,-0.00162561016623,0.000911809504032,-0.00159470154904,1.21846967915e-07,0.0,0.0,0.0,1.21846967915e-07,0.0,0.0,0.0,1.21846967915e-07,0.0292015746236,0.0118582770228,9.76371765137,9e-08,0.0,0.0,0.0,9e-08,0.0,0.0,0.0,9e-08
1560469597791859704,33202,1560469597789119552,base_link,-0.00223151749565,0.00153997941391,-0.599871679973,-0.800091695744,1.0,0.0,0.0,0.0,1.0,0.0,0.0,0.0,1.0,0.000709689396899,-0.00121270969976,-0.00151380267926,1.21846967915e-07,0.0,0.0,0.0,1.21846967915e-07,0.0,0.0,0.0,1.21846967915e-07,0.0555456951261,-0.00760062783956,9.8042755127,9e-08,0.0,0.0,0.0,9e-08,0.0,0.0,0.0,9e-08
1560469597811903265,33203,1560469597809119040,base_link,-0.00222706065164,0.00153813530407,-0.59986233391,-0.800098681584,1.0,0.0,0.0,0.0,1.0,0.0,0.0,0.0,1.0,-0.000142286487971,0.000914434087463,-0.00140624470077,1.21846967915e-07,0.0,0.0,0.0,1.21846967915e-07,0.0,0.0,0.0,1.21846967915e-07,0.0429767146707,0.00944390147925,9.79119777679,9e-08,0.0,0.0,0.0,9e-08,0.0,0.0,0.0,9e-08
1560469597831830974,33204,1560469597829119040,base_link,-0.00223291760243,0.00153597871487,-0.599848351693,-0.800109123465,1.0,0.0,0.0,0.0,1.0,0.0,0.0,0.0,1.0,0.00145479675848,-0.00153232109733,-0.00163404387422,1.21846967915e-07,0.0,0.0,0.0,1.21846967915e-07,0.0,0.0,0.0,1.21846967915e-07,0.0218031406403,0.0272647403181,9.84391689301,9e-08,0.0,0.0,0.0,9e-08,0.0,0.0,0.0,9e-08
1560469597852739283,33205,1560469597849119040,base_link,-0.00223029474314,0.0015359143833,-0.599837298682,-0.800117479078,1.0,0.0,0.0,0.0,1.0,0.0,0.0,0.0,1.0,0.00081647594925,0.00166032242123,-0.00174870004412,1.21846967915e-07,0.0,0.0,0.0,1.21846967915e-07,0.0,0.0,0.0,1.21846967915e-07,0.0698807537556,0.0216650217772,9.78232479095,9e-08,0.0,0.0,0.0,9e-08,0.0,0.0,0.0,9e-08
1560469597871727238,33206,1560469597869119040,base_link,-0.002233966705,0.00154125295667,-0.599820081694,-0.800130312794,1.0,0.0,0.0,0.0,1.0,0.0,0.0,0.0,1.0,0.00123527192045,-0.00185883231461,-0.00204997765832,1.21846967915e-07,0.0,0.0,0.0,1.21846967915e-07,0.0,0.0,0.0,1.21846967915e-07,0.0269605964422,0.0346889011562,9.81349754333,9e-08,0.0,0.0,0.0,9e-08,0.0,0.0,0.0,9e-08
1560469597891716873,33207,1560469597889119040,base_link,-0.00223185849823,0.00154265388663,-0.599810335235,-0.800137614735,1.0,0.0,0.0,0.0,1.0,0.0,0.0,0.0,1.0,7.5661984738e-05,0.000274556310615,-0.00108682585414,1.21846967915e-07,0.0,0.0,0.0,1.21846967915e-07,0.0,0.0,0.0,1.21846967915e-07,0.0462538152933,0.0507455319166,9.79626846313,9e-08,0.0,0.0,0.0,9e-08,0.0,0.0,0.0,9e-08
1560469597911347732,33208,1560469597909115712,base_link,-0.00223195863815,0.00153914051053,-0.599802622362,-0.800143388853,1.0,0.0,0.0,0.0,1.0,0.0,0.0,0.0,1.0,0.000925024040043,0.00038741377648,-0.00109843781684,1.21846967915e-07,0.0,0.0,0.0,1.21846967915e-07,0.0,0.0,0.0,1.21846967915e-07,0.0221354663372,0.0151728950441,9.82067108154,9e-08,0.0,0.0,0.0,9e-08,0.0,0.0,0.0,9e-08
1560469597931967529,33209,1560469597929115712,base_link,-0.00224060450436,0.00153992335531,-0.599791063589,-0.800152165935,1.0,0.0,0.0,0.0,1.0,0.0,0.0,0.0,1.0,0.00177862832788,0.00038045697147,-0.0010037291795,1.21846967915e-07,0.0,0.0,0.0,1.21846967915e-07,0.0,0.0,0.0,1.21846967915e-07,0.0489871352911,-0.00639680027962,9.79180908203,9e-08,0.0,0.0,0.0,9e-08,0.0,0.0,0.0,9e-08
1560469597951012916,33210,1560469597949115712,base_link,-0.00222924008411,0.00154110009203,-0.599775458718,-0.800163809001,1.0,0.0,0.0,0.0,1.0,0.0,0.0,0.0,1.0,0.000494771578815,-0.00068054383155,-0.00151207437739,1.21846967915e-07,0.0,0.0,0.0,1.21846967915e-07,0.0,0.0,0.0,1.21846967915e-07,0.0413230732083,0.0188167393208,9.78200817108,9e-08,0.0,0.0,0.0,9e-08,0.0,0.0,0.0,9e-08
1560469597972019436,33211,1560469597969115712,base_link,-0.00223882771012,0.00153661750304,-0.599770211435,-0.800167623291,1.0,0.0,0.0,0.0,1.0,0.0,0.0,0.0,1.0,0.000931888818741,0.000272803474218,-0.00109809497371,1.21846967915e-07,0.0,0.0,0.0,1.21846967915e-07,0.0,0.0,0.0,1.21846967915e-07,0.0363153815269,0.0166569985449,9.83528804779,9e-08,0.0,0.0,0.0,9e-08,0.0,0.0,0.0,9e-08
1560469597991764073,33212,1560469597989115712,base_link,-0.00223130709068,0.00153757012883,-0.599757725432,-0.800177074722,1.0,0.0,0.0,0.0,1.0,0.0,0.0,0.0,1.0,0.000699645257555,0.0012277266942,-0.00205773580819,1.21846967915e-07,0.0,0.0,0.0,1.21846967915e-07,0.0,0.0,0.0,1.21846967915e-07,0.0394217222929,-0.00889916718006,9.85655403137,9e-08,0.0,0.0,0.0,9e-08,0.0,0.0,0.0,9e-08
1560469598011625328,33213,1560469598009113664,base_link,-0.00223564698131,0.0015397027429,-0.599747041205,-0.800185145843,1.0,0.0,0.0,0.0,1.0,0.0,0.0,0.0,1.0,0.00228870147839,-0.000262696150457,-0.00249840854667,1.21846967915e-07,0.0,0.0,0.0,1.21846967915e-07,0.0,0.0,0.0,1.21846967915e-07,0.0422635748982,-0.000720120966433,9.78019237518,9e-08,0.0,0.0,0.0,9e-08,0.0,0.0,0.0,9e-08
