%time,field.header.seq,field.header.stamp,field.header.frame_id,field.orientation.x,field.orientation.y,field.orientation.z,field.orientation.w,field.orientation_covariance0,field.orientation_covariance1,field.orientation_covariance2,field.orientation_covariance3,field.orientation_covariance4,field.orientation_covariance5,field.orientation_covariance6,field.orientation_covariance7,field.orientation_covariance8,field.angular_velocity.x,field.angular_velocity.y,field.angular_velocity.z,field.angular_velocity_covariance0,field.angular_velocity_covariance1,field.angular_velocity_covariance2,field.angular_velocity_covariance3,field.angular_velocity_covariance4,field.angular_velocity_covariance5,field.angular_velocity_covariance6,field.angular_velocity_covariance7,field.angular_velocity_covariance8,field.linear_acceleration.x,field.linear_acceleration.y,field.linear_acceleration.z,field.linear_acceleration_covariance0,field.linear_acceleration_covariance1,field.linear_acceleration_covariance2,field.linear_acceleration_covariance3,field.linear_acceleration_covariance4,field.linear_acceleration_covariance5,field.linear_acceleration_covariance6,field.linear_acceleration_covariance7,field.linear_acceleration_covariance8
1560469798853869199,43251,1560469798783501312,base_link,0.00118984422295,-0.000587151697872,-0.603542227937,-0.797330086715,1.0,0.0,0.0,0.0,1.0,0.0,0.0,0.0,1.0,0.00170681835152,-0.000913635652978,-4.57996866317e-05,1.21846967915e-07,0.0,0.0,0.0,1.21846967915e-07,0.0,0.0,0.0,1.21846967915e-07,-0.0147785395384,-0.0308859348297,9.77173614502,9e-08,0.0,0.0,0.0,9e-08,0.0,0.0,0.0,9e-08
1560469798853886023,43252,1560469798803501312,base_link,0.00118153810397,-0.000586431970464,-0.603533535149,-0.797336503573,1.0,0.0,0.0,0.0,1.0,0.0,0.0,0.0,1.0,0.000843059387989,0.000367336208001,-0.000464846205432,1.21846967915e-07,0.0,0.0,0.0,1.21846967915e-07,0.0,0.0,0.0,1.21846967915e-07,-0.0360191985965,0.00482833385468,9.86246204376,9e-08,0.0,0.0,0.0,9e-08,0.0,0.0,0.0,9e-08
1560469798853936331,43253,1560469798824499520,base_link,0.00118719279929,-0.000593016818737,-0.603536295768,-0.797334501598,1.0,0.0,0.0,0.0,1.0,0.0,0.0,0.0,1.0,-0.00021690397989,0.0016469649272,0.000870099349413,1.21846967915e-07,0.0,0.0,0.0,1.21846967915e-07,0.0,0.0,0.0,1.21846967915e-07,-0.0287515856326,-0.0330553203821,9.79366588593,9e-08,0.0,0.0,0.0,9e-08,0.0,0.0,0.0,9e-08
1560469798853977027,43254,1560469798844499520,base_link,0.00118620959234,-0.000591103088397,-0.603536875287,-0.797334090666,1.0,0.0,0.0,0.0,1.0,0.0,0.0,0.0,1.0,9.0105131676e-06,0.000897886871826,7.75528751547e-05,1.21846967915e-07,0.0,0.0,0.0,1.21846967915e-07,0.0,0.0,0.0,1.21846967915e-07,-0.0116078592837,0.00961451977491,9.84976863861,9e-08,0.0,0.0,0.0,9e-08,0.0,0.0,0.0,9e-08
1560469798867876063,43255,1560469798864499520,base_link,0.00119441271084,-0.000593293777862,-0.603532945093,-0.797337009335,1.0,0.0,0.0,0.0,1.0,0.0,0.0,0.0,1.0,-0.000207789751585,0.000898398226127,0.000181241557584,1.21846967915e-07,0.0,0.0,0.0,1.21846967915e-07,0.0,0.0,0.0,1.21846967915e-07,-0.0228532291949,0.0159564912319,9.81554508209,9e-08,0.0,0.0,0.0,9e-08,0.0,0.0,0.0,9e-08
1560469798887543159,43256,1560469798884499520,base_link,0.00119550428952,-0.000590000849527,-0.603531649078,-0.797337968176,1.0,0.0,0.0,0.0,1.0,0.0,0.0,0.0,1.0,-0.000850548618473,4.55371919088e-05,-0.000124485217384,1.21846967915e-07,0.0,0.0,0.0,1.21846967915e-07,0.0,0.0,0.0,1.21846967915e-07,-0.0511988699436,-0.0164489671588,9.79470539093,9e-08,0.0,0.0,0.0,9e-08,0.0,0.0,0.0,9e-08
1560469798905815768,43257,1560469798900499520,base_link,0.00119549611945,-0.000587132003276,-0.603531406733,-0.797338126227,1.0,0.0,0.0,0.0,1.0,0.0,0.0,0.0,1.0,-0.000417026283685,-0.000698220857885,0.000616807956249,1.21846967915e-07,0.0,0.0,0.0,1.21846967915e-07,0.0,0.0,0.0,1.21846967915e-07,0.0197940226644,-0.0151562318206,9.76024436951,9e-08,0.0,0.0,0.0,9e-08,0.0,0.0,0.0,9e-08
1560469798927166392,43258,1560469798924495424,base_link,0.00120153956182,-0.000591734097513,-0.603531628004,-0.797337989249,1.0,0.0,0.0,0.0,1.0,0.0,0.0,0.0,1.0,-0.00149100238923,0.00153496931307,-0.000230809062487,1.21846967915e-07,0.0,0.0,0.0,1.21846967915e-07,0.0,0.0,0.0,1.21846967915e-07,-0.00631557032466,-0.0126072838902,9.80294322968,9e-08,0.0,0.0,0.0,9e-08,0.0,0.0,0.0,9e-08
1560469798948983168,43259,1560469798944495424,base_link,0.00120742437729,-0.000595780791776,-0.603528445917,-0.797340412693,1.0,0.0,0.0,0.0,1.0,0.0,0.0,0.0,1.0,-0.000635127827991,-0.000272754288744,8.51595541462e-05,1.21846967915e-07,0.0,0.0,0.0,1.21846967915e-07,0.0,0.0,0.0,1.21846967915e-07,-0.0174366421998,-0.0334081873298,9.82778930664,9e-08,0.0,0.0,0.0,9e-08,0.0,0.0,0.0,9e-08
1560469798968124612,43260,1560469798964495424,base_link,0.00121447512522,-0.000595977984697,-0.603523251318,-0.797344342887,1.0,0.0,0.0,0.0,1.0,0.0,0.0,0.0,1.0,-0.000209926976822,0.000258153682807,0.000179582086275,1.21846967915e-07,0.0,0.0,0.0,1.21846967915e-07,0.0,0.0,0.0,1.21846967915e-07,-0.0148250646889,-0.00985812395811,9.79794406891,9e-08,0.0,0.0,0.0,9e-08,0.0,0.0,0.0,9e-08
1560469798987796971,43261,1560469798984495424,base_link,0.00121129919143,-0.000592148322008,-0.6035174772,-0.797348684012,1.0,0.0,0.0,0.0,1.0,0.0,0.0,0.0,1.0,0.000839686836116,-0.000486286007799,-0.000773647625465,1.21846967915e-07,0.0,0.0,0.0,1.21846967915e-07,0.0,0.0,0.0,1.21846967915e-07,0.016294060275,-0.00127576291561,9.7890625,9e-08,0.0,0.0,0.0,9e-08,0.0,0.0,0.0,9e-08
1560469799007513735,43262,1560469799000493632,base_link,0.00121261099151,-0.000593334216611,-0.603514864095,-0.797350622767,1.0,0.0,0.0,0.0,1.0,0.0,0.0,0.0,1.0,-0.001280403696,-0.00112321414053,-1.18030602607e-05,1.21846967915e-07,0.0,0.0,0.0,1.21846967915e-07,0.0,0.0,0.0,1.21846967915e-07,-0.0203328952193,-0.0318452343345,9.79048633575,9e-08,0.0,0.0,0.0,9e-08,0.0,0.0,0.0,9e-08
1560469799028822216,43263,1560469799025493632,base_link,0.00120138803485,-0.000588184275081,-0.603514579604,-0.797350822965,1.0,0.0,0.0,0.0,1.0,0.0,0.0,0.0,1.0,0.000851805729326,-0.0015497233253,-0.000135378941195,1.21846967915e-07,0.0,0.0,0.0,1.21846967915e-07,0.0,0.0,0.0,1.21846967915e-07,-0.0229057259858,-0.00882191210985,9.85134887695,9e-08,0.0,0.0,0.0,9e-08,0.0,0.0,0.0,9e-08
1560469799048758504,43264,1560469799045493632,base_link,0.00119709897563,-0.000586631221336,-0.603518393894,-0.797347935906,1.0,0.0,0.0,0.0,1.0,0.0,0.0,0.0,1.0,0.00118361029308,0.000157630187459,0.000807932112366,1.21846967915e-07,0.0,0.0,0.0,1.21846967915e-07,0.0,0.0,0.0,1.21846967915e-07,-0.047087341547,-0.00763671845198,9.79063606262,9e-08,0.0,0.0,0.0,9e-08,0.0,0.0,0.0,9e-08
1560469799066938528,43265,1560469799061493632,base_link,0.00119656446386,-0.000586843046293,-0.603518267453,-0.797348062346,1.0,0.0,0.0,0.0,1.0,0.0,0.0,0.0,1.0,-0.000619320315309,5.37835876457e-05,0.00125259964261,1.21846967915e-07,0.0,0.0,0.0,1.21846967915e-07,0.0,0.0,0.0,1.21846967915e-07,-0.0326360240579,-0.003138884902,9.83844852448,9e-08,0.0,0.0,0.0,9e-08,0.0,0.0,0.0,9e-08
1560469799088401742,43266,1560469799085493632,base_link,0.00120086062302,-0.000581891635353,-0.603519342198,-0.797347240483,1.0,0.0,0.0,0.0,1.0,0.0,0.0,0.0,1.0,0.000323344749631,-0.0010093372548,-3.59916375601e-05,1.21846967915e-07,0.0,0.0,0.0,1.21846967915e-07,0.0,0.0,0.0,1.21846967915e-07,-0.0217489115894,-0.0261775627732,9.79721736908,9e-08,0.0,0.0,0.0,9e-08,0.0,0.0,0.0,9e-08
1560469799106084618,43267,1560469799101491840,base_link,0.00119828038389,-0.000588180632507,-0.603519321124,-0.79734734585,1.0,0.0,0.0,0.0,1.0,0.0,0.0,0.0,1.0,-0.000293658929877,-0.000793884741142,0.00157492700964,1.21846967915e-07,0.0,0.0,0.0,1.21846967915e-07,0.0,0.0,0.0,1.21846967915e-07,-0.037946883589,-0.00284396111965,9.79882907867,9e-08,0.0,0.0,0.0,9e-08,0.0,0.0,0.0,9e-08
1560469799125879666,43268,1560469799121491840,base_link,0.00119779001519,-0.000589556249666,-0.603513936864,-0.79735138141,1.0,0.0,0.0,0.0,1.0,0.0,0.0,0.0,1.0,-0.000867386057507,-0.000486817792989,-0.00119137926959,1.21846967915e-07,0.0,0.0,0.0,1.21846967915e-07,0.0,0.0,0.0,1.21846967915e-07,-0.0012733489275,-0.00421836227178,9.80622577667,9e-08,0.0,0.0,0.0,9e-08,0.0,0.0,0.0,9e-08
1560469799149552648,43269,1560469799145491840,base_link,0.00119418857933,-0.000594575696485,-0.603515980987,-0.79734984305,1.0,0.0,0.0,0.0,1.0,0.0,0.0,0.0,1.0,4.14105306845e-06,4.82666946482e-05,0.000179882568773,1.21846967915e-07,0.0,0.0,0.0,1.21846967915e-07,0.0,0.0,0.0,1.21846967915e-07,-0.0332209728658,-0.0242808759212,9.79399585724,9e-08,0.0,0.0,0.0,9e-08,0.0,0.0,0.0,9e-08
1560469799168093850,43270,1560469799165491840,base_link,0.00119333434421,-0.000594409352259,-0.603512314211,-0.797352582596,1.0,0.0,0.0,0.0,1.0,0.0,0.0,0.0,1.0,-0.000628508976661,-0.00122684706002,0.000619872414973,1.21846967915e-07,0.0,0.0,0.0,1.21846967915e-07,0.0,0.0,0.0,1.21846967915e-07,-0.02050556615,-0.00609096139669,9.81873416901,9e-08,0.0,0.0,0.0,9e-08,0.0,0.0,0.0,9e-08
1560469799186911276,43271,1560469799181491840,base_link,0.00119014935543,-0.000598718970416,-0.603509153197,-0.797354984966,1.0,0.0,0.0,0.0,1.0,0.0,0.0,0.0,1.0,-0.000110309716547,0.00057758030016,-0.000460145587567,1.21846967915e-07,0.0,0.0,0.0,1.21846967915e-07,0.0,0.0,0.0,1.21846967915e-07,-0.0619594231248,-0.0176039785147,9.82117462158,9e-08,0.0,0.0,0.0,9e-08,0.0,0.0,0.0,9e-08
1560469799206940203,43272,1560469799203489792,base_link,0.00119383909799,-0.0006013237609,-0.603507804498,-0.79735599649,1.0,0.0,0.0,0.0,1.0,0.0,0.0,0.0,1.0,-0.000849901756737,5.14811254106e-05,-8.13993210613e-06,1.21846967915e-07,0.0,0.0,0.0,1.21846967915e-07,0.0,0.0,0.0,1.21846967915e-07,-0.0311538986862,-0.0214799046516,9.82751560211,9e-08,0.0,0.0,0.0,9e-08,0.0,0.0,0.0,9e-08
1560469799225609891,43273,1560469799223489792,base_link,0.001188472413,-0.000598989426414,-0.60350433792,-0.797358704425,1.0,0.0,0.0,0.0,1.0,0.0,0.0,0.0,1.0,0.000225293581025,0.000370961031877,0.000813542457763,1.21846967915e-07,0.0,0.0,0.0,1.21846967915e-07,0.0,0.0,0.0,1.21846967915e-07,-0.0215153992176,0.00348648428917,9.8536233902,9e-08,0.0,0.0,0.0,9e-08,0.0,0.0,0.0,9e-08
1560469799245867656,43274,1560469799243489792,base_link,0.00118508105284,-0.000595861854489,-0.603504970122,-0.797358156516,1.0,0.0,0.0,0.0,1.0,0.0,0.0,0.0,1.0,0.00063959317049,-0.000484562420752,-3.94913913624e-05,1.21846967915e-07,0.0,0.0,0.0,1.21846967915e-07,0.0,0.0,0.0,1.21846967915e-07,-0.031653881073,-0.00824580341577,9.77360248566,9e-08,0.0,0.0,0.0,9e-08,0.0,0.0,0.0,9e-08
1560469799266195980,43275,1560469799263489792,base_link,0.00119001871667,-0.000593100350992,-0.603503811084,-0.797359062674,1.0,0.0,0.0,0.0,1.0,0.0,0.0,0.0,1.0,0.000543918577023,0.000582683715038,0.000808774784673,1.21846967915e-07,0.0,0.0,0.0,1.21846967915e-07,0.0,0.0,0.0,1.21846967915e-07,-0.0468490161002,-0.0166617333889,9.81306648254,9e-08,0.0,0.0,0.0,9e-08,0.0,0.0,0.0,9e-08
1560469799286299232,43276,1560469799283489792,base_link,0.0011893331101,-0.000593793530826,-0.603501124223,-0.797361159479,1.0,0.0,0.0,0.0,1.0,0.0,0.0,0.0,1.0,0.000852818717249,-0.000378130789613,-0.000152482520207,1.21846967915e-07,0.0,0.0,0.0,1.21846967915e-07,0.0,0.0,0.0,1.21846967915e-07,-0.045065972954,-0.00251639634371,9.80729389191,9e-08,0.0,0.0,0.0,9e-08,0.0,0.0,0.0,9e-08
1560469799306135018,43277,1560469799303489792,base_link,0.00118463058782,-0.00060050971757,-0.603500017868,-0.797361928659,1.0,0.0,0.0,0.0,1.0,0.0,0.0,0.0,1.0,0.000624091771897,0.000574102334213,-0.00132535025477,1.21846967915e-07,0.0,0.0,0.0,1.21846967915e-07,0.0,0.0,0.0,1.21846967915e-07,-0.0549245104194,0.0208298265934,9.82059288025,9e-08,0.0,0.0,0.0,9e-08,0.0,0.0,0.0,9e-08
1560469799327063809,43278,1560469799323487744,base_link,0.00118456886985,-0.000597519904924,-0.603500892415,-0.7973612227,1.0,0.0,0.0,0.0,1.0,0.0,0.0,0.0,1.0,6.75266346661e-06,0.00110950577073,0.00071377272252,1.21846967915e-07,0.0,0.0,0.0,1.21846967915e-07,0.0,0.0,0.0,1.21846967915e-07,-0.0580035187304,-0.0371204614639,9.83319282532,9e-08,0.0,0.0,0.0,9e-08,0.0,0.0,0.0,9e-08
1560469799345909575,43279,1560469799343487744,base_link,0.00118057837825,-0.000594639472405,-0.603503284249,-0.797359505215,1.0,0.0,0.0,0.0,1.0,0.0,0.0,0.0,1.0,-9.66259249253e-05,-0.000160811498063,0.00071306573227,1.21846967915e-07,0.0,0.0,0.0,1.21846967915e-07,0.0,0.0,0.0,1.21846967915e-07,-0.0533657930791,-0.0304009914398,9.82378864288,9e-08,0.0,0.0,0.0,9e-08,0.0,0.0,0.0,9e-08
1560469799366955621,43280,1560469799363487744,base_link,0.00118565256658,-0.000594729590105,-0.603500007331,-0.797361939196,1.0,0.0,0.0,0.0,1.0,0.0,0.0,0.0,1.0,0.000306645786623,0.00260139117017,-0.00100904935971,1.21846967915e-07,0.0,0.0,0.0,1.21846967915e-07,0.0,0.0,0.0,1.21846967915e-07,-0.0213555544615,-0.00443346053362,9.79691886902,9e-08,0.0,0.0,0.0,9e-08,0.0,0.0,0.0,9e-08
1560469799386421027,43281,1560469799383487744,base_link,0.00118419582497,-0.000591750869818,-0.603493400813,-0.797366944134,1.0,0.0,0.0,0.0,1.0,0.0,0.0,0.0,1.0,6.54712493997e-06,0.000698298565112,0.00016317954578,1.21846967915e-07,0.0,0.0,0.0,1.21846967915e-07,0.0,0.0,0.0,1.21846967915e-07,-0.00462942197919,-0.0162315517664,9.84388923645,9e-08,0.0,0.0,0.0,9e-08,0.0,0.0,0.0,9e-08
1560469799406864076,43282,1560469799403485184,base_link,0.00118338211091,-0.000599482429296,-0.603488027089,-0.797370969158,1.0,0.0,0.0,0.0,1.0,0.0,0.0,0.0,1.0,0.00244358577766,0.000894672994036,-0.000497398432344,1.21846967915e-07,0.0,0.0,0.0,1.21846967915e-07,0.0,0.0,0.0,1.21846967915e-07,-0.0479590408504,0.00817254930735,9.77233695984,9e-08,0.0,0.0,0.0,9e-08,0.0,0.0,0.0,9e-08
1560469799426147689,43283,1560469799423485184,base_link,0.00118173965975,-0.000602277168711,-0.603485034663,-0.797373202941,1.0,0.0,0.0,0.0,1.0,0.0,0.0,0.0,1.0,-0.00064277171623,-5.5172276916e-05,-0.000132596702315,1.21846967915e-07,0.0,0.0,0.0,1.21846967915e-07,0.0,0.0,0.0,1.21846967915e-07,-0.0354881323874,-0.0106446519494,9.80689620972,9e-08,0.0,0.0,0.0,9e-08,0.0,0.0,0.0,9e-08
1560469799449142514,43284,1560469799445485184,base_link,0.00117703483257,-0.000599819501187,-0.603488395874,-0.797370684667,1.0,0.0,0.0,0.0,1.0,0.0,0.0,0.0,1.0,-0.000213440682273,-0.000375279050786,-0.000139945565024,1.21846967915e-07,0.0,0.0,0.0,1.21846967915e-07,0.0,0.0,0.0,1.21846967915e-07,-0.0349266566336,-0.043195463717,9.77888393402,9e-08,0.0,0.0,0.0,9e-08,0.0,0.0,0.0,9e-08
1560469799469419018,43285,1560469799465485184,base_link,0.00116726701231,-0.000601079420308,-0.603485856527,-0.797372718252,1.0,0.0,0.0,0.0,1.0,0.0,0.0,0.0,1.0,0.0023485517595,-0.000378992903279,-0.000389967986848,1.21846967915e-07,0.0,0.0,0.0,1.21846967915e-07,0.0,0.0,0.0,1.21846967915e-07,-0.0128405019641,0.0169601514936,9.85640716553,9e-08,0.0,0.0,0.0,9e-08,0.0,0.0,0.0,9e-08
1560469799486136334,43286,1560469799481485184,base_link,0.0011671171317,-0.000605763050587,-0.603485856527,-0.797372633959,1.0,0.0,0.0,0.0,1.0,0.0,0.0,0.0,1.0,-0.00170217547566,-0.000270853168331,-1.10919982035e-05,1.21846967915e-07,0.0,0.0,0.0,1.21846967915e-07,0.0,0.0,0.0,1.21846967915e-07,-0.021273098886,0.0119566470385,9.76907444,9e-08,0.0,0.0,0.0,9e-08,0.0,0.0,0.0,9e-08
1560469799508794660,43287,1560469799505483392,base_link,0.0011624664698,-0.000592807525061,-0.603484834466,-0.797373403139,1.0,0.0,0.0,0.0,1.0,0.0,0.0,0.0,1.0,0.000535776547622,-0.000810399651527,-0.000138606323162,1.21846967915e-07,0.0,0.0,0.0,1.21846967915e-07,0.0,0.0,0.0,1.21846967915e-07,-0.0154332071543,-0.00248904526234,9.82323455811,9e-08,0.0,0.0,0.0,9e-08,0.0,0.0,0.0,9e-08
1560469799527661417,43288,1560469799525483392,base_link,0.00116605969443,-0.000595086541808,-0.603482453169,-0.79737519438,1.0,0.0,0.0,0.0,1.0,0.0,0.0,0.0,1.0,0.00104993744753,0.000256043102127,-0.00111484143417,1.21846967915e-07,0.0,0.0,0.0,1.21846967915e-07,0.0,0.0,0.0,1.21846967915e-07,-0.0476065017283,-0.0544831678271,9.80022335052,9e-08,0.0,0.0,0.0,9e-08,0.0,0.0,0.0,9e-08
1560469799549869221,43289,1560469799545483392,base_link,0.00116517461062,-0.000593065797985,-0.603486214775,-0.797372444298,1.0,0.0,0.0,0.0,1.0,0.0,0.0,0.0,1.0,-0.000421739532612,-0.00101674778853,0.000506764103193,1.21846967915e-07,0.0,0.0,0.0,1.21846967915e-07,0.0,0.0,0.0,1.21846967915e-07,-0.00473757833242,-0.0413291677833,9.82783412933,9e-08,0.0,0.0,0.0,9e-08,0.0,0.0,0.0,9e-08
1560469799567778715,43290,1560469799561483392,base_link,0.00116538682658,-0.000592179890986,-0.603485972431,-0.797372602349,1.0,0.0,0.0,0.0,1.0,0.0,0.0,0.0,1.0,0.000204914380447,-0.000162335374625,0.000172698521055,1.21846967915e-07,0.0,0.0,0.0,1.21846967915e-07,0.0,0.0,0.0,1.21846967915e-07,-0.0414302274585,-0.0353663787246,9.82504367828,9e-08,0.0,0.0,0.0,9e-08,0.0,0.0,0.0,9e-08
1560469799588574664,43291,1560469799585483392,base_link,0.00116472887888,-0.000586065860876,-0.603480809442,-0.797376500932,1.0,0.0,0.0,0.0,1.0,0.0,0.0,0.0,1.0,-0.000333547737682,0.000681555829942,-0.00109958287794,1.21846967915e-07,0.0,0.0,0.0,1.21846967915e-07,0.0,0.0,0.0,1.21846967915e-07,-0.0236584618688,-0.0249228850007,9.80397033691,9e-08,0.0,0.0,0.0,9e-08,0.0,0.0,0.0,9e-08
1560469799608124455,43292,1560469799605481600,base_link,0.00116535892076,-0.000581510564458,-0.603475730746,-0.797380399516,1.0,0.0,0.0,0.0,1.0,0.0,0.0,0.0,1.0,0.000206977594644,-0.00102393119596,-0.000460423529148,1.21846967915e-07,0.0,0.0,0.0,1.21846967915e-07,0.0,0.0,0.0,1.21846967915e-07,-0.00739195942879,-0.0250492170453,9.81504058838,9e-08,0.0,0.0,0.0,9e-08,0.0,0.0,0.0,9e-08
1560469799629088237,43293,1560469799625481600,base_link,0.00116629300441,-0.00057582919809,-0.603467217083,-0.79738689013,1.0,0.0,0.0,0.0,1.0,0.0,0.0,0.0,1.0,-0.000230834746617,-0.00102317251731,-0.00121714989655,1.21846967915e-07,0.0,0.0,0.0,1.21846967915e-07,0.0,0.0,0.0,1.21846967915e-07,-0.0150243602693,-0.00916671007872,9.76603221893,9e-08,0.0,0.0,0.0,9e-08,0.0,0.0,0.0,9e-08
1560469799649709597,43294,1560469799645481600,base_link,0.00116270539798,-0.00058163461778,-0.603463855872,-0.797389408404,1.0,0.0,0.0,0.0,1.0,0.0,0.0,0.0,1.0,0.000739637180232,-0.000381039688364,-0.000679153483361,1.21846967915e-07,0.0,0.0,0.0,1.21846967915e-07,0.0,0.0,0.0,1.21846967915e-07,-0.00601532682776,-0.0186174735427,9.79605102539,9e-08,0.0,0.0,0.0,9e-08,0.0,0.0,0.0,9e-08
1560469799669314406,43295,1560469799665481600,base_link,0.00118217608954,-0.000583382065631,-0.603463402793,-0.797389692896,1.0,0.0,0.0,0.0,1.0,0.0,0.0,0.0,1.0,-0.000633980089333,0.00164569634944,0.000386913190596,1.21846967915e-07,0.0,0.0,0.0,1.21846967915e-07,0.0,0.0,0.0,1.21846967915e-07,0.00205312296748,0.00204023718834,9.82816886902,9e-08,0.0,0.0,0.0,9e-08,0.0,0.0,0.0,9e-08
1560469799688107224,43296,1560469799685481600,base_link,0.00118131644201,-0.000594891201043,-0.603460315536,-0.797391937215,1.0,0.0,0.0,0.0,1.0,0.0,0.0,0.0,1.0,0.000109657499706,0.000262412999291,0.000279374158708,1.21846967915e-07,0.0,0.0,0.0,1.21846967915e-07,0.0,0.0,0.0,1.21846967915e-07,-0.00683728605509,-0.00996125489473,9.80662918091,9e-08,0.0,0.0,0.0,9e-08,0.0,0.0,0.0,9e-08
1560469799706185763,43297,1560469799701479552,base_link,0.00118044605196,-0.000596123461295,-0.603461021496,-0.797391399843,1.0,0.0,0.0,0.0,1.0,0.0,0.0,0.0,1.0,8.97875906958e-06,-0.000587889400776,0.000708952429704,1.21846967915e-07,0.0,0.0,0.0,1.21846967915e-07,0.0,0.0,0.0,1.21846967915e-07,-0.0348049141467,-0.00942008197307,9.8163766861,9e-08,0.0,0.0,0.0,9e-08,0.0,0.0,0.0,9e-08
1560469799725981127,43298,1560469799721479552,base_link,0.00118108154741,-0.000593131199687,-0.603462496636,-0.797390346172,1.0,0.0,0.0,0.0,1.0,0.0,0.0,0.0,1.0,-0.000311246374622,0.000476148270536,0.000602898129728,1.21846967915e-07,0.0,0.0,0.0,1.21846967915e-07,0.0,0.0,0.0,1.21846967915e-07,-0.0314925722778,0.00531230121851,9.81623935699,9e-08,0.0,0.0,0.0,9e-08,0.0,0.0,0.0,9e-08
1560469799749785607,43299,1560469799745479552,base_link,0.00117970208188,-0.000595363644989,-0.60346187497,-0.79739079925,1.0,0.0,0.0,0.0,1.0,0.0,0.0,0.0,1.0,0.000515897234436,-0.000277541636024,-0.00121579493862,1.21846967915e-07,0.0,0.0,0.0,1.21846967915e-07,0.0,0.0,0.0,1.21846967915e-07,-0.0562140420079,0.000856235623361,9.78693580627,9e-08,0.0,0.0,0.0,9e-08,0.0,0.0,0.0,9e-08
1560469799768414136,43300,1560469799765479552,base_link,0.00117640505822,-0.000602325798107,-0.603463455477,-0.797389640212,1.0,0.0,0.0,0.0,1.0,0.0,0.0,0.0,1.0,-0.000315547193168,-0.000381233083317,0.000292205309961,1.21846967915e-07,0.0,0.0,0.0,1.21846967915e-07,0.0,0.0,0.0,1.21846967915e-07,-0.04099900648,-0.0268808975816,9.8516740799,9e-08,0.0,0.0,0.0,9e-08,0.0,0.0,0.0,9e-08
1560469799788785229,43301,1560469799785479552,base_link,0.00118354633545,-0.000598970657896,-0.603463192059,-0.797389735043,1.0,0.0,0.0,0.0,1.0,0.0,0.0,0.0,1.0,-0.000950282323174,0.000261205859715,0.000935214105994,1.21846967915e-07,0.0,0.0,0.0,1.21846967915e-07,0.0,0.0,0.0,1.21846967915e-07,-0.00746614485979,-0.0223105847836,9.79799461365,9e-08,0.0,0.0,0.0,9e-08,0.0,0.0,0.0,9e-08
1560469799807540055,43302,1560469799802477504,base_link,0.00118345679397,-0.000605929477132,-0.603463739968,-0.797389440015,1.0,0.0,0.0,0.0,1.0,0.0,0.0,0.0,1.0,0.00109999557026,0.0016438147286,-4.3133404688e-05,1.21846967915e-07,0.0,0.0,0.0,1.21846967915e-07,0.0,0.0,0.0,1.21846967915e-07,-0.00952108204365,0.0176185294986,9.84319782257,9e-08,0.0,0.0,0.0,9e-08,0.0,0.0,0.0,9e-08
1560469799827036483,43303,1560469799823477504,base_link,0.00118340168203,-0.000597931248287,-0.603469050471,-0.797385393917,1.0,0.0,0.0,0.0,1.0,0.0,0.0,0.0,1.0,-0.00010476634634,-0.00197224016301,-0.00036598026054,1.21846967915e-07,0.0,0.0,0.0,1.21846967915e-07,0.0,0.0,0.0,1.21846967915e-07,-0.0536228679121,-0.004020832479,9.83786392212,9e-08,0.0,0.0,0.0,9e-08,0.0,0.0,0.0,9e-08
1560469799846147862,43304,1560469799843477504,base_link,0.0011882675645,-0.000595656409182,-0.603463181522,-0.797389829873,1.0,0.0,0.0,0.0,1.0,0.0,0.0,0.0,1.0,-0.00118045730051,-0.000266023271251,8.74524412211e-05,1.21846967915e-07,0.0,0.0,0.0,1.21846967915e-07,0.0,0.0,0.0,1.21846967915e-07,-0.00343846157193,-0.0152686089277,9.86662197113,9e-08,0.0,0.0,0.0,9e-08,0.0,0.0,0.0,9e-08
1560469799866536356,43305,1560469799863477504,base_link,0.00119312346591,-0.000600947032282,-0.603463107765,-0.797389819336,1.0,0.0,0.0,0.0,1.0,0.0,0.0,0.0,1.0,0.000872053264175,-0.000476411398267,0.00165320723318,1.21846967915e-07,0.0,0.0,0.0,1.21846967915e-07,0.0,0.0,0.0,1.21846967915e-07,-0.0404933653772,-0.0250890702009,9.81086826324,9e-08,0.0,0.0,0.0,9e-08,0.0,0.0,0.0,9e-08
1560469799885595889,43306,1560469799883477504,base_link,0.00118869913753,-0.000599709194982,-0.6034679968,-0.797386110414,1.0,0.0,0.0,0.0,1.0,0.0,0.0,0.0,1.0,0.000544162583537,0.00176180608105,0.000791458005551,1.21846967915e-07,0.0,0.0,0.0,1.21846967915e-07,0.0,0.0,0.0,1.21846967915e-07,-0.0356786549091,-0.00696825236082,9.82346248627,9e-08,0.0,0.0,0.0,9e-08,0.0,0.0,0.0,9e-08
1560469799906171008,43307,1560469799903477504,base_link,0.00118949070803,-0.00059877109833,-0.603463423867,-0.797389587529,1.0,0.0,0.0,0.0,1.0,0.0,0.0,0.0,1.0,0.00211797608063,0.000576531747356,-0.000706796243321,1.21846967915e-07,0.0,0.0,0.0,1.21846967915e-07,0.0,0.0,0.0,1.21846967915e-07,-0.045376598835,-0.0147945508361,9.77784538269,9e-08,0.0,0.0,0.0,9e-08,0.0,0.0,0.0,9e-08
1560469799926119680,43308,1560469799923476480,base_link,0.0011921658393,-0.000592472819815,-0.60346725923,-0.79738676369,1.0,0.0,0.0,0.0,1.0,0.0,0.0,0.0,1.0,-0.000750252685975,0.000684634607751,-0.000347925815731,1.21846967915e-07,0.0,0.0,0.0,1.21846967915e-07,0.0,0.0,0.0,1.21846967915e-07,-0.0156904682517,-0.0228279158473,9.81906509399,9e-08,0.0,0.0,0.0,9e-08,0.0,0.0,0.0,9e-08
1560469799946762856,43309,1560469799943476480,base_link,0.00119360014924,-0.000593754018155,-0.603462823274,-0.797390019534,1.0,0.0,0.0,0.0,1.0,0.0,0.0,0.0,1.0,-0.000529626035132,0.000154329114594,0.000179219830898,1.21846967915e-07,0.0,0.0,0.0,1.21846967915e-07,0.0,0.0,0.0,1.21846967915e-07,-0.0116847828031,-0.0308871939778,9.79990196228,9e-08,0.0,0.0,0.0,9e-08,0.0,0.0,0.0,9e-08
1560469799966025344,43310,1560469799963476480,base_link,0.0011994150355,-0.000592306269793,-0.603467585868,-0.797386521345,1.0,0.0,0.0,0.0,1.0,0.0,0.0,0.0,1.0,0.000217169799726,-0.000375828938559,0.000388523330912,1.21846967915e-07,0.0,0.0,0.0,1.21846967915e-07,0.0,0.0,0.0,1.21846967915e-07,-0.0170409046113,-0.0281301662326,9.75981235504,9e-08,0.0,0.0,0.0,9e-08,0.0,0.0,0.0,9e-08
1560469799986325639,43311,1560469799983476480,base_link,0.00119516701184,-0.000587167729315,-0.603462907568,-0.797390019534,1.0,0.0,0.0,0.0,1.0,0.0,0.0,0.0,1.0,0.000865439826157,-0.000266061746515,0.00122655183077,1.21846967915e-07,0.0,0.0,0.0,1.21846967915e-07,0.0,0.0,0.0,1.21846967915e-07,-0.0123133547604,-0.00578754395246,9.81536006927,9e-08,0.0,0.0,0.0,9e-08,0.0,0.0,0.0,9e-08
1560469800006099868,43312,1560469800003474432,base_link,0.00120177931318,-0.000598887496072,-0.60345892469,-0.797392990887,1.0,0.0,0.0,0.0,1.0,0.0,0.0,0.0,1.0,0.00116685184184,0.00270588346757,-0.000281058455585,1.21846967915e-07,0.0,0.0,0.0,1.21846967915e-07,0.0,0.0,0.0,1.21846967915e-07,-0.0333918482065,-0.0416875705123,9.76942157745,9e-08,0.0,0.0,0.0,9e-08,0.0,0.0,0.0,9e-08
1560469800027070405,43313,1560469800023474432,base_link,0.00119209788574,-0.000599741463663,-0.603458050143,-0.797393696846,1.0,0.0,0.0,0.0,1.0,0.0,0.0,0.0,1.0,0.000839376938529,-0.00038252864033,-0.000900753482711,1.21846967915e-07,0.0,0.0,0.0,1.21846967915e-07,0.0,0.0,0.0,1.21846967915e-07,-0.0383953936398,-0.0585709810257,9.82063102722,9e-08,0.0,0.0,0.0,9e-08,0.0,0.0,0.0,9e-08
1560469800046074361,43314,1560469800043474432,base_link,0.00119104108644,-0.000594249861011,-0.6034564591,-0.797394950715,1.0,0.0,0.0,0.0,1.0,0.0,0.0,0.0,1.0,-0.00073512486415,-0.000373505870812,0.00114456762094,1.21846967915e-07,0.0,0.0,0.0,1.21846967915e-07,0.0,0.0,0.0,1.21846967915e-07,-0.0088826008141,-0.0253291130066,9.82022666931,9e-08,0.0,0.0,0.0,9e-08,0.0,0.0,0.0,9e-08
1560469800066867513,43315,1560469800063474432,base_link,0.00118454598543,-0.00059193314259,-0.603458450538,-0.797393465039,1.0,0.0,0.0,0.0,1.0,0.0,0.0,0.0,1.0,0.000532560225111,-0.000484541465994,0.000168477665284,1.21846967915e-07,0.0,0.0,0.0,1.21846967915e-07,0.0,0.0,0.0,1.21846967915e-07,-0.00874092057347,-0.0419504866004,9.80324268341,9e-08,0.0,0.0,0.0,9e-08,0.0,0.0,0.0,9e-08
1560469800086017042,43316,1560469800083474432,base_link,0.00118686099575,-0.000596342200969,-0.603461084716,-0.797391420916,1.0,0.0,0.0,0.0,1.0,0.0,0.0,0.0,1.0,-0.00127107114531,0.00164648680948,0.000711919274181,1.21846967915e-07,0.0,0.0,0.0,1.21846967915e-07,0.0,0.0,0.0,1.21846967915e-07,-0.00562434270978,-0.00829038023949,9.7859916687,9e-08,0.0,0.0,0.0,9e-08,0.0,0.0,0.0,9e-08
1560469800106131937,43317,1560469800103472640,base_link,0.00118701202882,-0.000600173386542,-0.603456332659,-0.797394908568,1.0,0.0,0.0,0.0,1.0,0.0,0.0,0.0,1.0,0.00138179631904,-0.00186483014841,5.23450544279e-05,1.21846967915e-07,0.0,0.0,0.0,1.21846967915e-07,0.0,0.0,0.0,1.21846967915e-07,-0.000680472701788,0.00183449685574,9.79616260529,9e-08,0.0,0.0,0.0,9e-08,0.0,0.0,0.0,9e-08
1560469800125818544,43318,1560469800123472640,base_link,0.00119145545499,-0.000603447608097,-0.603454225317,-0.797396510148,1.0,0.0,0.0,0.0,1.0,0.0,0.0,0.0,1.0,-0.000948050234001,-0.000165509409271,0.000611164432485,1.21846967915e-07,0.0,0.0,0.0,1.21846967915e-07,0.0,0.0,0.0,1.21846967915e-07,-0.0558435991406,0.00869881361723,9.77385902405,9e-08,0.0,0.0,0.0,9e-08,0.0,0.0,0.0,9e-08
1560469800147906080,43319,1560469800143472640,base_link,0.00118969691478,-0.000604476974901,-0.603452729104,-0.797397669187,1.0,0.0,0.0,0.0,1.0,0.0,0.0,0.0,1.0,0.00137353141326,-0.000489991158247,-0.00101508386433,1.21846967915e-07,0.0,0.0,0.0,1.21846967915e-07,0.0,0.0,0.0,1.21846967915e-07,-0.0609431229532,0.0022638887167,9.81932258606,9e-08,0.0,0.0,0.0,9e-08,0.0,0.0,0.0,9e-08
1560469800166804808,43320,1560469800164472640,base_link,0.00118762391956,-0.00060166126496,-0.603449894728,-0.797399913506,1.0,0.0,0.0,0.0,1.0,0.0,0.0,0.0,1.0,-0.00129912456032,0.000306402187562,0.000171309147845,1.21846967915e-07,0.0,0.0,0.0,1.21846967915e-07,0.0,0.0,0.0,1.21846967915e-07,-0.0478283949196,-0.0266094580293,9.82640266418,9e-08,0.0,0.0,0.0,9e-08,0.0,0.0,0.0,9e-08
1560469800186750624,43321,1560469800184472640,base_link,0.0011941008077,-0.000609700838052,-0.603447829533,-0.79740147294,1.0,0.0,0.0,0.0,1.0,0.0,0.0,0.0,1.0,0.000339362159139,0.000905929715373,0.00154610932805,1.21846967915e-07,0.0,0.0,0.0,1.21846967915e-07,0.0,0.0,0.0,1.21846967915e-07,-0.0633236840367,-0.0132051855326,9.77750110626,9e-08,0.0,0.0,0.0,9e-08,0.0,0.0,0.0,9e-08
1560469800207005063,43322,1560469800204469568,base_link,0.00119883502243,-0.000601852366344,-0.603451675433,-0.797398469977,1.0,0.0,0.0,0.0,1.0,0.0,0.0,0.0,1.0,-0.000732574902941,-0.000800744688604,0.000927794724703,1.21846967915e-07,0.0,0.0,0.0,1.21846967915e-07,0.0,0.0,0.0,1.21846967915e-07,-0.0413734912872,0.00518956780434,9.85471630096,9e-08,0.0,0.0,0.0,9e-08,0.0,0.0,0.0,9e-08
1560469800227152805,43323,1560469800224469568,base_link,0.00120120539165,-0.000601924703343,-0.603448356368,-0.797400946104,1.0,0.0,0.0,0.0,1.0,0.0,0.0,0.0,1.0,0.000642644939944,0.00100853631739,0.000267250288744,1.21846967915e-07,0.0,0.0,0.0,1.21846967915e-07,0.0,0.0,0.0,1.21846967915e-07,0.00834268331528,-0.0177305787802,9.82572937012,9e-08,0.0,0.0,0.0,9e-08,0.0,0.0,0.0,9e-08
1560469800247145408,43324,1560469800244469568,base_link,0.00121017089889,-0.000598564233037,-0.603439431773,-0.797407763357,1.0,0.0,0.0,0.0,1.0,0.0,0.0,0.0,1.0,-0.00192064419389,-0.000379733683076,-0.000227229233133,1.21846967915e-07,0.0,0.0,0.0,1.21846967915e-07,0.0,0.0,0.0,1.21846967915e-07,-0.0638825148344,-0.0173206552863,9.80871772766,9e-08,0.0,0.0,0.0,9e-08,0.0,0.0,0.0,9e-08
1560469800267740874,43325,1560469800264469568,base_link,0.00121849564234,-0.000597098066008,-0.60343879957,-0.797408226972,1.0,0.0,0.0,0.0,1.0,0.0,0.0,0.0,1.0,-0.00126474583521,-0.000380108307581,0.00104590819683,1.21846967915e-07,0.0,0.0,0.0,1.21846967915e-07,0.0,0.0,0.0,1.21846967915e-07,-0.0275566615164,0.0150395184755,9.81381893158,9e-08,0.0,0.0,0.0,9e-08,0.0,0.0,0.0,9e-08
1560469800286631323,43326,1560469800284469568,base_link,0.00122045512094,-0.000605296471803,-0.603439431773,-0.797407763357,1.0,0.0,0.0,0.0,1.0,0.0,0.0,0.0,1.0,-0.00191797607113,0.00111072603613,-2.04338830372e-05,1.21846967915e-07,0.0,0.0,0.0,1.21846967915e-07,0.0,0.0,0.0,1.21846967915e-07,-0.0383594073355,0.00594556331635,9.79653263092,9e-08,0.0,0.0,0.0,9e-08,0.0,0.0,0.0,9e-08
1560469800308049008,43327,1560469800304467008,base_link,0.00121891822212,-0.000607314437391,-0.603436112709,-0.797410155191,1.0,0.0,0.0,0.0,1.0,0.0,0.0,0.0,1.0,-0.00116409373004,0.000164636439877,0.00029167579487,1.21846967915e-07,0.0,0.0,0.0,1.21846967915e-07,0.0,0.0,0.0,1.21846967915e-07,-0.0162079595029,-0.00289743393659,9.84466171265,9e-08,0.0,0.0,0.0,9e-08,0.0,0.0,0.0,9e-08
1560469800327220219,43328,1560469800324467008,base_link,0.00121336486034,-0.000611055978593,-0.603435248698,-0.797410934907,1.0,0.0,0.0,0.0,1.0,0.0,0.0,0.0,1.0,0.0022380349692,0.0012196963653,0.000453498098068,1.21846967915e-07,0.0,0.0,0.0,1.21846967915e-07,0.0,0.0,0.0,1.21846967915e-07,-0.0150567628443,-0.0302623435855,9.79200553894,9e-08,0.0,0.0,0.0,9e-08,0.0,0.0,0.0,9e-08
1560469800348192455,43329,1560469800344467008,base_link,0.00120541855361,-0.000608716478649,-0.603438947084,-0.797408079458,1.0,0.0,0.0,0.0,1.0,0.0,0.0,0.0,1.0,0.00192786415573,0.000379698845791,0.000673631264362,1.21846967915e-07,0.0,0.0,0.0,1.21846967915e-07,0.0,0.0,0.0,1.21846967915e-07,-0.0101061053574,0.011235781014,9.8390827179,9e-08,0.0,0.0,0.0,9e-08,0.0,0.0,0.0,9e-08
1560469800367017128,43330,1560469800364467008,base_link,0.00121167427369,-0.000618278174473,-0.60344251903,-0.79740535045,1.0,0.0,0.0,0.0,1.0,0.0,0.0,0.0,1.0,0.000749741157051,0.00259801768698,0.00119911972433,1.21846967915e-07,0.0,0.0,0.0,1.21846967915e-07,0.0,0.0,0.0,1.21846967915e-07,-0.0252202451229,-0.0401750504971,9.83364391327,9e-08,0.0,0.0,0.0,9e-08,0.0,0.0,0.0,9e-08
1560469800387105031,43331,1560469800384467008,base_link,0.00120662087067,-0.000618681100815,-0.603436618471,-0.79740990231,1.0,0.0,0.0,0.0,1.0,0.0,0.0,0.0,1.0,0.00189988862257,0.000256825442193,-0.00081470888108,1.21846967915e-07,0.0,0.0,0.0,1.21846967915e-07,0.0,0.0,0.0,1.21846967915e-07,-0.0516758263111,-0.0392566919327,9.79780387878,9e-08,0.0,0.0,0.0,9e-08,0.0,0.0,0.0,9e-08
1560469800407182025,43332,1560469800404464704,base_link,0.00120451011204,-0.000620861006613,-0.603432498616,-0.79741301064,1.0,0.0,0.0,0.0,1.0,0.0,0.0,0.0,1.0,0.000314546196023,0.00111126457341,-0.000159261195222,1.21846967915e-07,0.0,0.0,0.0,1.21846967915e-07,0.0,0.0,0.0,1.21846967915e-07,-0.00987819954753,-0.0297369733453,9.82648849487,9e-08,0.0,0.0,0.0,9e-08,0.0,0.0,0.0,9e-08
1560469800427205375,43333,1560469800424464704,base_link,0.00120512321698,-0.000625315237029,-0.603429695851,-0.797415139055,1.0,0.0,0.0,0.0,1.0,0.0,0.0,0.0,1.0,0.000948915607296,-0.000486421544338,-0.000479292415548,1.21846967915e-07,0.0,0.0,0.0,1.21846967915e-07,0.0,0.0,0.0,1.21846967915e-07,-0.0147443264723,-0.00474335253239,9.78318691254,9e-08,0.0,0.0,0.0,9e-08,0.0,0.0,0.0,9e-08
1560469800446572795,43334,1560469800444464704,base_link,0.00120049618037,-0.000622551922535,-0.603429716924,-0.797415117982,1.0,0.0,0.0,0.0,1.0,0.0,0.0,0.0,1.0,-0.000523999158759,0.000477577414131,0.000812579412013,1.21846967915e-07,0.0,0.0,0.0,1.21846967915e-07,0.0,0.0,0.0,1.21846967915e-07,-0.0209036692977,-0.0297614336014,9.82177257538,9e-08,0.0,0.0,0.0,9e-08,0.0,0.0,0.0,9e-08
1560469800466883097,43335,1560469800464464704,base_link,0.00120354421247,-0.000617187789404,-0.603429137405,-0.797415528914,1.0,0.0,0.0,0.0,1.0,0.0,0.0,0.0,1.0,0.000222181202844,0.00101036403794,0.000906162487809,1.21846967915e-07,0.0,0.0,0.0,1.21846967915e-07,0.0,0.0,0.0,1.21846967915e-07,-0.0348208062351,-0.0390104874969,9.77864074707,9e-08,0.0,0.0,0.0,9e-08,0.0,0.0,0.0,9e-08
1560469800486790103,43336,1560469800484464704,base_link,0.00120572249248,-0.000620442501578,-0.60342412193,-0.797419279983,1.0,0.0,0.0,0.0,1.0,0.0,0.0,0.0,1.0,0.00136006227694,0.000466200057417,-0.00155429693405,1.21846967915e-07,0.0,0.0,0.0,1.21846967915e-07,0.0,0.0,0.0,1.21846967915e-07,-0.0439542718232,-0.0265012457967,9.80847167969,9e-08,0.0,0.0,0.0,9e-08,0.0,0.0,0.0,9e-08
1560469800507379114,43337,1560469800504461376,base_link,0.00119784523003,-0.000613404060195,-0.603415207872,-0.797426002406,1.0,0.0,0.0,0.0,1.0,0.0,0.0,0.0,1.0,-0.000216441228986,-0.000484210788272,-3.90808127122e-05,1.21846967915e-07,0.0,0.0,0.0,1.21846967915e-07,0.0,0.0,0.0,1.21846967915e-07,-0.00103249773383,-0.00776820629835,9.84742164612,9e-08,0.0,0.0,0.0,9e-08,0.0,0.0,0.0,9e-08
1560469800527524677,43338,1560469800524461376,base_link,0.00120121502286,-0.000611274800585,-0.603414301715,-0.797426824269,1.0,0.0,0.0,0.0,1.0,0.0,0.0,0.0,1.0,-0.000554094091058,4.15082031395e-05,-0.00142098451033,1.21846967915e-07,0.0,0.0,0.0,1.21846967915e-07,0.0,0.0,0.0,1.21846967915e-07,-0.0389851257205,0.00685140490532,9.82394790649,9e-08,0.0,0.0,0.0,9e-08,0.0,0.0,0.0,9e-08
1560469800548450901,43339,1560469800544461376,base_link,0.00119326326256,-0.000605451126865,-0.6034124894,-0.797428130822,1.0,0.0,0.0,0.0,1.0,0.0,0.0,0.0,1.0,-0.000108593216282,-5.7967932662e-05,6.36189506622e-05,1.21846967915e-07,0.0,0.0,0.0,1.21846967915e-07,0.0,0.0,0.0,1.21846967915e-07,0.018562965095,-0.000313371419905,9.8168888092,9e-08,0.0,0.0,0.0,9e-08,0.0,0.0,0.0,9e-08
1560469800567001565,43340,1560469800564461376,base_link,0.00119966978933,-0.000604254510335,-0.603416019199,-0.79742544396,1.0,0.0,0.0,0.0,1.0,0.0,0.0,0.0,1.0,-0.00103998766281,-0.00122201407794,0.00189536029939,1.21846967915e-07,0.0,0.0,0.0,1.21846967915e-07,0.0,0.0,0.0,1.21846967915e-07,-0.0228930301964,0.0147041231394,9.78254413605,9e-08,0.0,0.0,0.0,9e-08,0.0,0.0,0.0,9e-08
1560469800588089107,43341,1560469800584461376,base_link,0.00120326505133,-0.000606218022524,-0.603414375472,-0.797426666219,1.0,0.0,0.0,0.0,1.0,0.0,0.0,0.0,1.0,0.000309906026814,0.000260795844952,-0.000476071145386,1.21846967915e-07,0.0,0.0,0.0,1.21846967915e-07,0.0,0.0,0.0,1.21846967915e-07,0.0122635141015,-0.027312323451,9.84140777588,9e-08,0.0,0.0,0.0,9e-08,0.0,0.0,0.0,9e-08
1560469800606829710,43342,1560469800604459072,base_link,0.00120649062291,-0.000599934664158,-0.60341172022,-0.797428731414,1.0,0.0,0.0,0.0,1.0,0.0,0.0,0.0,1.0,-0.00031473315903,5.12772239745e-05,0.000597503385507,1.21846967915e-07,0.0,0.0,0.0,1.21846967915e-07,0.0,0.0,0.0,1.21846967915e-07,-0.00453494116664,-0.00563480705023,9.79907989502,9e-08,0.0,0.0,0.0,9e-08,0.0,0.0,0.0,9e-08
1560469800628515539,43343,1560469800624459072,base_link,0.00121081450267,-0.000602123954215,-0.603407199971,-0.797432155846,1.0,0.0,0.0,0.0,1.0,0.0,0.0,0.0,1.0,0.000196154549485,-0.00134510209318,-0.00100238912273,1.21846967915e-07,0.0,0.0,0.0,1.21846967915e-07,0.0,0.0,0.0,1.21846967915e-07,0.00770111382008,-0.0263255685568,9.76322937012,9e-08,0.0,0.0,0.0,9e-08,0.0,0.0,0.0,9e-08
1560469800648262801,43344,1560469800644459072,base_link,0.00121159689471,-0.000602743603438,-0.603402005372,-0.797436086039,1.0,0.0,0.0,0.0,1.0,0.0,0.0,0.0,1.0,-0.000862815359142,-0.00133945164271,-0.000130172193167,1.21846967915e-07,0.0,0.0,0.0,1.21846967915e-07,0.0,0.0,0.0,1.21846967915e-07,0.000649891793728,-0.0267921462655,9.75284004211,9e-08,0.0,0.0,0.0,9e-08,0.0,0.0,0.0,9e-08
1560469800667717132,43345,1560469800664459072,base_link,0.00120912251662,-0.000599282519879,-0.603401478536,-0.797436444287,1.0,0.0,0.0,0.0,1.0,0.0,0.0,0.0,1.0,0.000329426460667,-0.0027158933226,0.00102556764614,1.21846967915e-07,0.0,0.0,0.0,1.21846967915e-07,0.0,0.0,0.0,1.21846967915e-07,-0.043150883168,-0.0521234050393,9.84029769897,9e-08,0.0,0.0,0.0,9e-08,0.0,0.0,0.0,9e-08
1560469800686283903,43346,1560469800680459072,base_link,0.00121040955954,-0.000599760870146,-0.603396589502,-0.797440237504,1.0,0.0,0.0,0.0,1.0,0.0,0.0,0.0,1.0,-0.00106839241926,0.00281527778134,-4.48891623819e-05,1.21846967915e-07,0.0,0.0,0.0,1.21846967915e-07,0.0,0.0,0.0,1.21846967915e-07,-0.0209436751902,-0.00317224860191,9.82008647919,9e-08,0.0,0.0,0.0,9e-08,0.0,0.0,0.0,9e-08
1560469800707562372,43347,1560469800704457024,base_link,0.00120949348297,-0.000587478068414,-0.603396473598,-0.797440269114,1.0,0.0,0.0,0.0,1.0,0.0,0.0,0.0,1.0,0.00127278710715,-0.00176009372808,-5.12862097821e-05,1.21846967915e-07,0.0,0.0,0.0,1.21846967915e-07,0.0,0.0,0.0,1.21846967915e-07,-0.028280466795,-0.0182728916407,9.83897686005,9e-08,0.0,0.0,0.0,9e-08,0.0,0.0,0.0,9e-08
1560469800727809027,43348,1560469800724457024,base_link,0.00121386912022,-0.00058701319773,-0.603396283937,-0.797440374481,1.0,0.0,0.0,0.0,1.0,0.0,0.0,0.0,1.0,-0.00161687715445,0.00228674034588,-0.0011161766015,1.21846967915e-07,0.0,0.0,0.0,1.21846967915e-07,0.0,0.0,0.0,1.21846967915e-07,-0.0197119601071,0.0162015110254,9.79342079163,9e-08,0.0,0.0,0.0,9e-08,0.0,0.0,0.0,9e-08
1560469800746029970,43349,1560469800740457024,base_link,0.00121823343873,-0.0005898158191,-0.603390267474,-0.797445042245,1.0,0.0,0.0,0.0,1.0,0.0,0.0,0.0,1.0,0.00010068793199,0.00079426728189,-0.000157777249115,1.21846967915e-07,0.0,0.0,0.0,1.21846967915e-07,0.0,0.0,0.0,1.21846967915e-07,-0.0311228595674,-0.0167071968317,9.77213859558,9e-08,0.0,0.0,0.0,9e-08,0.0,0.0,0.0,9e-08
1560469800767559728,43350,1560469800764457024,base_link,0.00122429760467,-0.000589865086461,-0.603387601686,-0.797446949389,1.0,0.0,0.0,0.0,1.0,0.0,0.0,0.0,1.0,5.8236582845e-06,0.00154292036314,0.000268292380497,1.21846967915e-07,0.0,0.0,0.0,1.21846967915e-07,0.0,0.0,0.0,1.21846967915e-07,-0.0325961224735,-0.00646460801363,9.82990646362,9e-08,0.0,0.0,0.0,9e-08,0.0,0.0,0.0,9e-08
1560469800786147829,43351,1560469800780457024,base_link,0.00122782087953,-0.000590677504009,-0.603389234876,-0.797445737668,1.0,0.0,0.0,0.0,1.0,0.0,0.0,0.0,1.0,0.00118008069694,-0.000585851084907,0.00110862869769,1.21846967915e-07,0.0,0.0,0.0,1.21846967915e-07,0.0,0.0,0.0,1.21846967915e-07,-0.0533086545765,-0.0107496827841,9.81901836395,9e-08,0.0,0.0,0.0,9e-08,0.0,0.0,0.0,9e-08
1560469800808179396,43352,1560469800804454464,base_link,0.00123352980187,-0.000586988666947,-0.603386442648,-0.797447771253,1.0,0.0,0.0,0.0,1.0,0.0,0.0,0.0,1.0,-0.00160132069141,0.000685006380081,-0.000347399938619,1.21846967915e-07,0.0,0.0,0.0,1.21846967915e-07,0.0,0.0,0.0,1.21846967915e-07,-0.0513870604336,0.01758505404,9.71479892731,9e-08,0.0,0.0,0.0,9e-08,0.0,0.0,0.0,9e-08
1560469800828206700,43353,1560469800824454464,base_link,0.00122970133279,-0.000579134391816,-0.603384198328,-0.79744950981,1.0,0.0,0.0,0.0,1.0,0.0,0.0,0.0,1.0,0.000424863770604,-0.00154641130939,0.000168453872902,1.21846967915e-07,0.0,0.0,0.0,1.21846967915e-07,0.0,0.0,0.0,1.21846967915e-07,-0.052415125072,-0.00676130503416,9.78593826294,9e-08,0.0,0.0,0.0,9e-08,0.0,0.0,0.0,9e-08
1560469800845868206,43354,1560469800840454464,base_link,0.00123575547651,-0.000581528550955,-0.603385736688,-0.797448224332,1.0,0.0,0.0,0.0,1.0,0.0,0.0,0.0,1.0,0.000107041007141,0.00260505196638,0.000365395157132,1.21846967915e-07,0.0,0.0,0.0,1.21846967915e-07,0.0,0.0,0.0,1.21846967915e-07,0.0131060257554,-0.00382327288389,9.80390167236,9e-08,0.0,0.0,0.0,9e-08,0.0,0.0,0.0,9e-08
1560469800868159698,43355,1560469800864454464,base_link,0.00123272750944,-0.000576851053371,-0.603392648771,-0.79744316671,1.0,0.0,0.0,0.0,1.0,0.0,0.0,0.0,1.0,-0.00137008808088,-5.24220813531e-05,0.00114169856533,1.21846967915e-07,0.0,0.0,0.0,1.21846967915e-07,0.0,0.0,0.0,1.21846967915e-07,-0.0436194688082,0.00834304094315,9.87233257294,9e-08,0.0,0.0,0.0,9e-08,0.0,0.0,0.0,9e-08
1560469800887720495,43356,1560469800884454464,base_link,0.00123619174166,-0.000576020340633,-0.603386432111,-0.79744778179,1.0,0.0,0.0,0.0,1.0,0.0,0.0,0.0,1.0,0.00063434796175,0.000157380854944,0.000266309652943,1.21846967915e-07,0.0,0.0,0.0,1.21846967915e-07,0.0,0.0,0.0,1.21846967915e-07,-0.0694107115269,-0.00264713913202,9.7515335083,9e-08,0.0,0.0,0.0,9e-08,0.0,0.0,0.0,9e-08
1560469800906253233,43357,1560469800900454464,base_link,0.00122853581191,-0.000566841403224,-0.603381774884,-0.797451343198,1.0,0.0,0.0,0.0,1.0,0.0,0.0,0.0,1.0,0.00115131831262,-0.00144579308107,-0.00112008943688,1.21846967915e-07,0.0,0.0,0.0,1.21846967915e-07,0.0,0.0,0.0,1.21846967915e-07,-0.0482885278761,-0.0174151360989,9.8450050354,9e-08,0.0,0.0,0.0,9e-08,0.0,0.0,0.0,9e-08
1560469800927646050,43358,1560469800924454208,base_link,0.00123186771785,-0.000571863299006,-0.603373788056,-0.797457391271,1.0,0.0,0.0,0.0,1.0,0.0,0.0,0.0,1.0,0.00149153650273,0.00164788705297,0.000456798850792,1.21846967915e-07,0.0,0.0,0.0,1.21846967915e-07,0.0,0.0,0.0,1.21846967915e-07,-0.0413070805371,-0.0431967675686,9.7251291275,9e-08,0.0,0.0,0.0,9e-08,0.0,0.0,0.0,9e-08
1560469800948641800,43359,1560469800944454208,base_link,0.00121978811825,-0.000563347906928,-0.603372460431,-0.797458466016,1.0,0.0,0.0,0.0,1.0,0.0,0.0,0.0,1.0,0.0022308321204,-0.000908238638658,3.35792719852e-05,1.21846967915e-07,0.0,0.0,0.0,1.21846967915e-07,0.0,0.0,0.0,1.21846967915e-07,-0.0413664765656,-0.0308106839657,9.82796382904,9e-08,0.0,0.0,0.0,9e-08,0.0,0.0,0.0,9e-08
1560469800968021894,43360,1560469800964454208,base_link,0.00121339035836,-0.000570827326177,-0.603372681702,-0.797458329039,1.0,0.0,0.0,0.0,1.0,0.0,0.0,0.0,1.0,0.00190652755555,0.00100432394538,-0.000186175180716,1.21846967915e-07,0.0,0.0,0.0,1.21846967915e-07,0.0,0.0,0.0,1.21846967915e-07,-0.0271468535066,0.00859590619803,9.82253170013,9e-08,0.0,0.0,0.0,9e-08,0.0,0.0,0.0,9e-08
1560469800985837922,43361,1560469800980454208,base_link,0.00121230030256,-0.000565542671137,-0.603372966193,-0.797458044547,1.0,0.0,0.0,0.0,1.0,0.0,0.0,0.0,1.0,0.00021309274598,-0.00122590176761,0.000381111050956,1.21846967915e-07,0.0,0.0,0.0,1.21846967915e-07,0.0,0.0,0.0,1.21846967915e-07,-0.0432419627905,-0.0133775025606,9.79446792603,9e-08,0.0,0.0,0.0,9e-08,0.0,0.0,0.0,9e-08
1560469801007501800,43362,1560469801004452160,base_link,0.0012101765171,-0.000575320554776,-0.603374378112,-0.797457054096,1.0,0.0,0.0,0.0,1.0,0.0,0.0,0.0,1.0,-0.000215261097765,0.000581738713663,6.02130203333e-05,1.21846967915e-07,0.0,0.0,0.0,1.21846967915e-07,0.0,0.0,0.0,1.21846967915e-07,-0.0133847557008,-0.0205494314432,9.78098392487,9e-08,0.0,0.0,0.0,9e-08,0.0,0.0,0.0,9e-08
1560469801026219956,43363,1560469801020452160,base_link,0.00121282483326,-0.00057065462288,-0.603372787069,-0.797458223671,1.0,0.0,0.0,0.0,1.0,0.0,0.0,0.0,1.0,-0.000951971160248,-0.00154277321417,0.00082422979176,1.21846967915e-07,0.0,0.0,0.0,1.21846967915e-07,0.0,0.0,0.0,1.21846967915e-07,0.00196251645684,0.020367346704,9.79161548615,9e-08,0.0,0.0,0.0,9e-08,0.0,0.0,0.0,9e-08
1560469801047979395,43364,1560469801044452160,base_link,0.00121765863227,-0.000573506038281,-0.603366749533,-0.797462743921,1.0,0.0,0.0,0.0,1.0,0.0,0.0,0.0,1.0,0.000734869157895,0.00111277366523,-0.000489145924803,1.21846967915e-07,0.0,0.0,0.0,1.21846967915e-07,0.0,0.0,0.0,1.21846967915e-07,-0.0330672077835,-0.0203855931759,9.80432224274,9e-08,0.0,0.0,0.0,9e-08,0.0,0.0,0.0,9e-08
1560469801068118733,43365,1560469801064452160,base_link,0.00120997776014,-0.000569116118853,-0.603367128854,-0.797462533187,1.0,0.0,0.0,0.0,1.0,0.0,0.0,0.0,1.0,-0.00063316518208,-0.000377958640456,0.000490100937895,1.21846967915e-07,0.0,0.0,0.0,1.21846967915e-07,0.0,0.0,0.0,1.21846967915e-07,0.0117042958736,-0.00651840865612,9.84264278412,9e-08,0.0,0.0,0.0,9e-08,0.0,0.0,0.0,9e-08
1560469801087463891,43366,1560469801084452160,base_link,0.00121496489712,-0.000577858482412,-0.603368245746,-0.797461669176,1.0,0.0,0.0,0.0,1.0,0.0,0.0,0.0,1.0,-0.000554718193598,0.000267221708782,-0.000679354649037,1.21846967915e-07,0.0,0.0,0.0,1.21846967915e-07,0.0,0.0,0.0,1.21846967915e-07,-0.0443024300039,-0.00463786721229,9.80249404907,9e-08,0.0,0.0,0.0,9e-08,0.0,0.0,0.0,9e-08
1560469801107642635,43367,1560469801104450112,base_link,0.00121398751417,-0.00057265377879,-0.603364305016,-0.797464598382,1.0,0.0,0.0,0.0,1.0,0.0,0.0,0.0,1.0,-0.000557024613954,-0.0004827620578,-0.00111244304571,1.21846967915e-07,0.0,0.0,0.0,1.21846967915e-07,0.0,0.0,0.0,1.21846967915e-07,-0.0404328256845,-0.0293655470014,9.82955360413,9e-08,0.0,0.0,0.0,9e-08,0.0,0.0,0.0,9e-08
1560469801127248225,43368,1560469801124450112,base_link,0.00122036928378,-0.00057892890535,-0.603359805839,-0.79746800174,1.0,0.0,0.0,0.0,1.0,0.0,0.0,0.0,1.0,0.000525255571119,0.000155168323545,-0.000163091128343,1.21846967915e-07,0.0,0.0,0.0,1.21846967915e-07,0.0,0.0,0.0,1.21846967915e-07,-0.0313715450466,-0.0192627683282,9.75690174103,9e-08,0.0,0.0,0.0,9e-08,0.0,0.0,0.0,9e-08
1560469801151235668,43369,1560469801146450112,base_link,0.00121229355248,-0.000577739080061,-0.603358794315,-0.797468844677,1.0,0.0,0.0,0.0,1.0,0.0,0.0,0.0,1.0,0.00117168959696,0.000265429116553,0.000466302764835,1.21846967915e-07,0.0,0.0,0.0,1.21846967915e-07,0.0,0.0,0.0,1.21846967915e-07,-0.0305164940655,0.0138566195965,9.82069015503,9e-08,0.0,0.0,0.0,9e-08,0.0,0.0,0.0,9e-08
1560469801165809349,43370,1560469801162450112,base_link,0.00121603130705,-0.000580138466396,-0.603356866097,-0.797470267133,1.0,0.0,0.0,0.0,1.0,0.0,0.0,0.0,1.0,-0.000427832448622,-0.0010152204195,0.000175285749719,1.21846967915e-07,0.0,0.0,0.0,1.21846967915e-07,0.0,0.0,0.0,1.21846967915e-07,0.00654944032431,-0.00662881880998,9.81417942047,9e-08,0.0,0.0,0.0,9e-08,0.0,0.0,0.0,9e-08
1560469801189158564,43371,1560469801186450112,base_link,0.00121275091164,-0.000587211419627,-0.603353694546,-0.797472595747,1.0,0.0,0.0,0.0,1.0,0.0,0.0,0.0,1.0,0.000841135159135,-0.00037842860911,-0.000484317046357,1.21846967915e-07,0.0,0.0,0.0,1.21846967915e-07,0.0,0.0,0.0,1.21846967915e-07,-0.0173293277621,-0.0433563217521,9.84793949127,9e-08,0.0,0.0,0.0,9e-08,0.0,0.0,0.0,9e-08
1560469801208762831,43372,1560469801206446272,base_link,0.00120108570118,-0.000586082592023,-0.603355622765,-0.797471173291,1.0,0.0,0.0,0.0,1.0,0.0,0.0,0.0,1.0,0.000203671079362,-0.000592345546465,-0.000264275004156,1.21846967915e-07,0.0,0.0,0.0,1.21846967915e-07,0.0,0.0,0.0,1.21846967915e-07,0.0248725265265,-0.0275206416845,9.82546138763,9e-08,0.0,0.0,0.0,9e-08,0.0,0.0,0.0,9e-08
1560469801229144727,43373,1560469801226446272,base_link,0.00120419643906,-0.000582864676023,-0.603354411043,-0.797472132131,1.0,0.0,0.0,0.0,1.0,0.0,0.0,0.0,1.0,-2.56102430285e-06,-6.19868224021e-05,-0.000476028915728,1.21846967915e-07,0.0,0.0,0.0,1.21846967915e-07,0.0,0.0,0.0,1.21846967915e-07,-0.0359427370131,0.00711192935705,9.80438899994,9e-08,0.0,0.0,0.0,9e-08,0.0,0.0,0.0,9e-08
1560469801249588324,43374,1560469801246446272,base_link,0.00121009580424,-0.00057825984471,-0.603349479862,-0.797475798907,1.0,0.0,0.0,0.0,1.0,0.0,0.0,0.0,1.0,-0.00204607192427,-0.0010227363091,-0.00055511307437,1.21846967915e-07,0.0,0.0,0.0,1.21846967915e-07,0.0,0.0,0.0,1.21846967915e-07,-0.0649975165725,-0.0303509905934,9.76466751099,9e-08,0.0,0.0,0.0,9e-08,0.0,0.0,0.0,9e-08
1560469801268971435,43375,1560469801266446272,base_link,0.00120286729045,-0.000576129453226,-0.603345707719,-0.797478728113,1.0,0.0,0.0,0.0,1.0,0.0,0.0,0.0,1.0,-0.000218999310164,-0.000696003728081,-4.40782932856e-05,1.21846967915e-07,0.0,0.0,0.0,1.21846967915e-07,0.0,0.0,0.0,1.21846967915e-07,-0.0438074208796,-0.0189672112465,9.89708995819,9e-08,0.0,0.0,0.0,9e-08,0.0,0.0,0.0,9e-08
1560469801288705036,43376,1560469801286446272,base_link,0.00122330435492,-0.000581438844845,-0.603347793988,-0.797477063313,1.0,0.0,0.0,0.0,1.0,0.0,0.0,0.0,1.0,-0.00192652258556,0.00260029989295,-0.000356737698894,1.21846967915e-07,0.0,0.0,0.0,1.21846967915e-07,0.0,0.0,0.0,1.21846967915e-07,-0.0601065084338,-0.0176512002945,9.76745510101,9e-08,0.0,0.0,0.0,9e-08,0.0,0.0,0.0,9e-08
1560469801308970584,43377,1560469801306444480,base_link,0.00120980730001,-0.000576281968019,-0.603342641535,-0.797480951359,1.0,0.0,0.0,0.0,1.0,0.0,0.0,0.0,1.0,0.000530316086952,-0.00218344060704,0.000272635748843,1.21846967915e-07,0.0,0.0,0.0,1.21846967915e-07,0.0,0.0,0.0,1.21846967915e-07,-0.0323196128011,-0.0347171649337,9.79683208466,9e-08,0.0,0.0,0.0,9e-08,0.0,0.0,0.0,9e-08
1560469801326873178,43378,1560469801322444480,base_link,0.00121097024845,-0.000583168244462,-0.603343895404,-0.797480118959,1.0,0.0,0.0,0.0,1.0,0.0,0.0,0.0,1.0,-0.000337073492119,0.00206713937223,-0.000696585455444,1.21846967915e-07,0.0,0.0,0.0,1.21846967915e-07,0.0,0.0,0.0,1.21846967915e-07,-0.0445692203939,-0.0429923683405,9.80987262726,9e-08,0.0,0.0,0.0,9e-08,0.0,0.0,0.0,9e-08
1560469801349980965,43379,1560469801346444480,base_link,0.00120842818433,-0.000579891573944,-0.603339248714,-0.797483585537,1.0,0.0,0.0,0.0,1.0,0.0,0.0,0.0,1.0,0.000839715008624,-0.000483302457724,-0.000379268545657,1.21846967915e-07,0.0,0.0,0.0,1.21846967915e-07,0.0,0.0,0.0,1.21846967915e-07,-0.025440402329,-0.00750780105591,9.78107261658,9e-08,0.0,0.0,0.0,9e-08,0.0,0.0,0.0,9e-08
1560469801365997749,43380,1560469801362444480,base_link,0.00121471281863,-0.000582877599959,-0.603337552303,-0.79748486048,1.0,0.0,0.0,0.0,1.0,0.0,0.0,0.0,1.0,-0.0015920791775,0.00112026953138,0.000603379565291,1.21846967915e-07,0.0,0.0,0.0,1.21846967915e-07,0.0,0.0,0.0,1.21846967915e-07,-0.0245997421443,-0.00639133155346,9.8051366806,9e-08,0.0,0.0,0.0,9e-08,0.0,0.0,0.0,9e-08
1560469801387004193,43381,1560469801382444480,base_link,0.00122230077424,-0.000576283388005,-0.603334170019,-0.797487399827,1.0,0.0,0.0,0.0,1.0,0.0,0.0,0.0,1.0,-0.000649454363156,0.00068937393371,6.31869334029e-05,1.21846967915e-07,0.0,0.0,0.0,1.21846967915e-07,0.0,0.0,0.0,1.21846967915e-07,-0.0281380563974,-0.0111691877246,9.90146827698,9e-08,0.0,0.0,0.0,9e-08,0.0,0.0,0.0,9e-08
1560469801406236792,43382,1560469801402442432,base_link,0.00122668030102,-0.000580649332298,-0.603330187142,-0.79749037118,1.0,0.0,0.0,0.0,1.0,0.0,0.0,0.0,1.0,0.000640019658022,0.00175306713209,0.000358110264642,1.21846967915e-07,0.0,0.0,0.0,1.21846967915e-07,0.0,0.0,0.0,1.21846967915e-07,-0.011514775455,-0.0195875540376,9.82488059998,9e-08,0.0,0.0,0.0,9e-08,0.0,0.0,0.0,9e-08
1560469801429524224,43383,1560469801426442432,base_link,0.00121860751259,-0.000583752579235,-0.603326899688,-0.797492984285,1.0,0.0,0.0,0.0,1.0,0.0,0.0,0.0,1.0,-0.000134007757879,4.32783272117e-05,-0.0015405396698,1.21846967915e-07,0.0,0.0,0.0,1.21846967915e-07,0.0,0.0,0.0,1.21846967915e-07,-0.0154096409678,-0.0137885957956,9.84082698822,9e-08,0.0,0.0,0.0,9e-08,0.0,0.0,0.0,9e-08
1560469801445905048,43384,1560469801442442432,base_link,0.00122244349319,-0.000585112020895,-0.603321209863,-0.797497241116,1.0,0.0,0.0,0.0,1.0,0.0,0.0,0.0,1.0,-2.14698557102e-05,0.000577353639528,-0.00111370231025,1.21846967915e-07,0.0,0.0,0.0,1.21846967915e-07,0.0,0.0,0.0,1.21846967915e-07,-0.0440618507564,-0.026831895113,9.80275821686,9e-08,0.0,0.0,0.0,9e-08,0.0,0.0,0.0,9e-08
1560469801467008492,43385,1560469801462442432,base_link,0.00121462712552,-0.000590979919995,-0.60331657371,-0.797500697158,1.0,0.0,0.0,0.0,1.0,0.0,0.0,0.0,1.0,0.00189992727246,-5.95212040935e-05,-0.00071520335041,1.21846967915e-07,0.0,0.0,0.0,1.21846967915e-07,0.0,0.0,0.0,1.21846967915e-07,0.000668544322252,-0.0186933204532,9.80635070801,9e-08,0.0,0.0,0.0,9e-08,0.0,0.0,0.0,9e-08
1560469801488580508,43386,1560469801486442432,base_link,0.00122760522678,-0.000595473333809,-0.603312000777,-0.797504174273,1.0,0.0,0.0,0.0,1.0,0.0,0.0,0.0,1.0,-0.000524032395333,-0.000265139853582,0.000912930932827,1.21846967915e-07,0.0,0.0,0.0,1.21846967915e-07,0.0,0.0,0.0,1.21846967915e-07,-0.0471812412143,-0.0360889360309,9.7561750412,9e-08,0.0,0.0,0.0,9e-08,0.0,0.0,0.0,9e-08
1560469801506490227,43387,1560469801503442432,base_link,0.00122018087831,-0.000583942960337,-0.60330974592,-0.797505923367,1.0,0.0,0.0,0.0,1.0,0.0,0.0,0.0,1.0,0.000307086709654,-0.00111919501796,-0.000477852619952,1.21846967915e-07,0.0,0.0,0.0,1.21846967915e-07,0.0,0.0,0.0,1.21846967915e-07,-0.0110459588468,-0.0114560872316,9.82044219971,9e-08,0.0,0.0,0.0,9e-08,0.0,0.0,0.0,9e-08
1560469801526297488,43388,1560469801523440128,base_link,0.0012233711766,-0.000590225989431,-0.603304488101,-0.797509748194,1.0,0.0,0.0,0.0,1.0,0.0,0.0,0.0,1.0,0.000409381202189,0.00281554320827,-0.000497184402775,1.21846967915e-07,0.0,0.0,0.0,1.21846967915e-07,0.0,0.0,0.0,1.21846967915e-07,-0.0255369208753,-0.0269850417972,9.76978588104,9e-08,0.0,0.0,0.0,9e-08,0.0,0.0,0.0,9e-08
1560469801545657741,43389,1560469801543440128,base_link,0.00122311076341,-0.00058761811202,-0.603296438053,-0.797515859487,1.0,0.0,0.0,0.0,1.0,0.0,0.0,0.0,1.0,0.000621485000011,0.00132424081676,-0.000600998173468,1.21846967915e-07,0.0,0.0,0.0,1.21846967915e-07,0.0,0.0,0.0,1.21846967915e-07,0.0062943585217,-0.00582917779684,9.79778957367,9e-08,0.0,0.0,0.0,9e-08,0.0,0.0,0.0,9e-08
1560469801566576023,43390,1560469801563440128,base_link,0.00121898979767,-0.000596070654257,-0.603297291526,-0.797515258894,1.0,0.0,0.0,0.0,1.0,0.0,0.0,0.0,1.0,0.000535349943675,0.000374858587747,0.000258460408077,1.21846967915e-07,0.0,0.0,0.0,1.21846967915e-07,0.0,0.0,0.0,1.21846967915e-07,-0.0362535528839,0.00782661139965,9.78656673431,9e-08,0.0,0.0,0.0,9e-08,0.0,0.0,0.0,9e-08
1560469801585981348,43391,1560469801583440128,base_link,0.00122555715336,-0.00059424053849,-0.603295795313,-0.797516333639,1.0,0.0,0.0,0.0,1.0,0.0,0.0,0.0,1.0,-0.00149154360406,0.000903404376004,0.000388975342503,1.21846967915e-07,0.0,0.0,0.0,1.21846967915e-07,0.0,0.0,0.0,1.21846967915e-07,0.00407211109996,-0.00153634697199,9.81115722656,9e-08,0.0,0.0,0.0,9e-08,0.0,0.0,0.0,9e-08
1560469801606953366,43392,1560469801603437568,base_link,0.00123156622794,-0.000589116877002,-0.603293013621,-0.797518440981,1.0,0.0,0.0,0.0,1.0,0.0,0.0,0.0,1.0,-0.00107576884329,-0.00155045243446,-0.000991042121314,1.21846967915e-07,0.0,0.0,0.0,1.21846967915e-07,0.0,0.0,0.0,1.21846967915e-07,-0.0162531994283,-0.0374064445496,9.79526615143,9e-08,0.0,0.0,0.0,9e-08,0.0,0.0,0.0,9e-08
1560469801626191548,43393,1560469801623437568,base_link,0.00122876661118,-0.000586204443336,-0.603292276051,-0.797519094257,1.0,0.0,0.0,0.0,1.0,0.0,0.0,0.0,1.0,-0.000105383558548,0.00111765461043,0.000686193234287,1.21846967915e-07,0.0,0.0,0.0,1.21846967915e-07,0.0,0.0,0.0,1.21846967915e-07,0.0113114304841,-0.0274660512805,9.85282230377,9e-08,0.0,0.0,0.0,9e-08,0.0,0.0,0.0,9e-08
1560469801646113894,43394,1560469801643437568,base_link,0.00123375687624,-0.000597089546088,-0.603290253003,-0.79752052725,1.0,0.0,0.0,0.0,1.0,0.0,0.0,0.0,1.0,0.000832577235997,-0.000591811258346,-0.00112369679846,1.21846967915e-07,0.0,0.0,0.0,1.21846967915e-07,0.0,0.0,0.0,1.21846967915e-07,-0.0241370685399,-0.0287783145905,9.76883888245,9e-08,0.0,0.0,0.0,9e-08,0.0,0.0,0.0,9e-08
1560469801665896468,43395,1560469801663437568,base_link,0.00121813087042,-0.000599850555676,-0.603289093964,-0.797521517701,1.0,0.0,0.0,0.0,1.0,0.0,0.0,0.0,1.0,0.00138020736631,-0.000481034279801,3.30878829118e-05,1.21846967915e-07,0.0,0.0,0.0,1.21846967915e-07,0.0,0.0,0.0,1.21846967915e-07,-0.0202356167138,-0.000370003283023,9.84119415283,9e-08,0.0,0.0,0.0,9e-08,0.0,0.0,0.0,9e-08
1560469801686415482,43396,1560469801683437568,base_link,0.00121858551308,-0.000609916655435,-0.6032857749,-0.797523993828,1.0,0.0,0.0,0.0,1.0,0.0,0.0,0.0,1.0,-0.000320532213664,0.000475404289318,0.000477051566122,1.21846967915e-07,0.0,0.0,0.0,1.21846967915e-07,0.0,0.0,0.0,1.21846967915e-07,-0.0273556262255,-0.0272110626101,9.80483341217,9e-08,0.0,0.0,0.0,9e-08,0.0,0.0,0.0,9e-08
1560469801706212194,43397,1560469801703437568,base_link,0.00120958197489,-0.000611601623877,-0.603278378128,-0.797529536139,1.0,0.0,0.0,0.0,1.0,0.0,0.0,0.0,1.0,0.00105565274134,-0.000590671901591,0.000157899936312,1.21846967915e-07,0.0,0.0,0.0,1.21846967915e-07,0.0,0.0,0.0,1.21846967915e-07,-0.0440293364227,-0.0543634593487,9.81313228607,9e-08,0.0,0.0,0.0,9e-08,0.0,0.0,0.0,9e-08
1560469801726567530,43398,1560469801723435776,base_link,0.00120891079456,-0.000623332071402,-0.603273225676,-0.797533424186,1.0,0.0,0.0,0.0,1.0,0.0,0.0,0.0,1.0,0.00211688573472,0.00111103628296,-0.000191008395632,1.21846967915e-07,0.0,0.0,0.0,1.21846967915e-07,0.0,0.0,0.0,1.21846967915e-07,-0.027899172157,-0.0130501240492,9.80930137634,9e-08,0.0,0.0,0.0,9e-08,0.0,0.0,0.0,9e-08
1560469801745626669,43399,1560469801743435776,base_link,0.00120963533757,-0.000623650498251,-0.603274216127,-0.797532686616,1.0,0.0,0.0,0.0,1.0,0.0,0.0,0.0,1.0,-0.000637658173218,5.36102452315e-05,0.000593424250837,1.21846967915e-07,0.0,0.0,0.0,1.21846967915e-07,0.0,0.0,0.0,1.21846967915e-07,-0.00286572799087,-0.0235407501459,9.79147052765,9e-08,0.0,0.0,0.0,9e-08,0.0,0.0,0.0,9e-08
1560469801766303212,43400,1560469801763435776,base_link,0.0012152358676,-0.000626170315914,-0.60327651313,-0.797530979669,1.0,0.0,0.0,0.0,1.0,0.0,0.0,0.0,1.0,-0.000760624126997,-0.000376495620003,-0.00046723059495,1.21846967915e-07,0.0,0.0,0.0,1.21846967915e-07,0.0,0.0,0.0,1.21846967915e-07,-0.0253526866436,-0.0269163772464,9.78526592255,9e-08,0.0,0.0,0.0,9e-08,0.0,0.0,0.0,9e-08
1560469801786154826,43401,1560469801783435776,base_link,0.00122138128147,-0.000627981930696,-0.603276123272,-0.79753120094,1.0,0.0,0.0,0.0,1.0,0.0,0.0,0.0,1.0,-0.000426003360189,-0.000373394577764,0.000487460929435,1.21846967915e-07,0.0,0.0,0.0,1.21846967915e-07,0.0,0.0,0.0,1.21846967915e-07,-0.0120883844793,-0.0207402035594,9.77613735199,9e-08,0.0,0.0,0.0,9e-08,0.0,0.0,0.0,9e-08
1560469801807255943,43402,1560469801803433216,base_link,0.00122122907538,-0.000627048526174,-0.603274279347,-0.797532623396,1.0,0.0,0.0,0.0,1.0,0.0,0.0,0.0,1.0,-0.000654315401334,-0.00101583567448,-0.000572451681364,1.21846967915e-07,0.0,0.0,0.0,1.21846967915e-07,0.0,0.0,0.0,1.21846967915e-07,-0.0452902540565,-0.0290926098824,9.82566833496,9e-08,0.0,0.0,0.0,9e-08,0.0,0.0,0.0,9e-08
1560469801826198212,43403,1560469801823433216,base_link,0.00121996464934,-0.000625439228612,-0.603277872366,-0.797529873314,1.0,0.0,0.0,0.0,1.0,0.0,0.0,0.0,1.0,-0.000854347075801,0.000162997690495,0.000487708748551,1.21846967915e-07,0.0,0.0,0.0,1.21846967915e-07,0.0,0.0,0.0,1.21846967915e-07,-0.04948906973,-0.0134879946709,9.79684638977,9e-08,0.0,0.0,0.0,9e-08,0.0,0.0,0.0,9e-08
