%time,field.header.seq,field.header.stamp,field.header.frame_id,field.orientation.x,field.orientation.y,field.orientation.z,field.orientation.w,field.orientation_covariance0,field.orientation_covariance1,field.orientation_covariance2,field.orientation_covariance3,field.orientation_covariance4,field.orientation_covariance5,field.orientation_covariance6,field.orientation_covariance7,field.orientation_covariance8,field.angular_velocity.x,field.angular_velocity.y,field.angular_velocity.z,field.angular_velocity_covariance0,field.angular_velocity_covariance1,field.angular_velocity_covariance2,field.angular_velocity_covariance3,field.angular_velocity_covariance4,field.angular_velocity_covariance5,field.angular_velocity_covariance6,field.angular_velocity_covariance7,field.angular_velocity_covariance8,field.linear_acceleration.x,field.linear_acceleration.y,field.linear_acceleration.z,field.linear_acceleration_covariance0,field.linear_acceleration_covariance1,field.linear_acceleration_covariance2,field.linear_acceleration_covariance3,field.linear_acceleration_covariance4,field.linear_acceleration_covariance5,field.linear_acceleration_covariance6,field.linear_acceleration_covariance7,field.linear_acceleration_covariance8
1560461061887872741,4475,1560461061836204992,base_link,-0.00553339890795,0.00797448823278,-0.421937031624,-0.906573190232,1.0,0.0,0.0,0.0,1.0,0.0,0.0,0.0,1.0,-0.0019849401433,0.00227726087905,-0.0108389975503,1.21846967915e-07,0.0,0.0,0.0,1.21846967915e-07,0.0,0.0,0.0,1.21846967915e-07,0.176434218884,0.00267048925161,9.84290599823,9e-08,0.0,0.0,0.0,9e-08,0.0,0.0,0.0,9e-08
1560461061887930017,4476,1560461061856204992,base_link,-0.00554857844117,0.00797469625052,-0.421904894652,-0.90658813129,1.0,0.0,0.0,0.0,1.0,0.0,0.0,0.0,1.0,0.00188696291298,-0.00217775511555,-0.00777969881892,1.21846967915e-07,0.0,0.0,0.0,1.21846967915e-07,0.0,0.0,0.0,1.21846967915e-07,0.203665181994,0.0253584310412,9.81238174438,9e-08,0.0,0.0,0.0,9e-08,0.0,0.0,0.0,9e-08
1560461061888044703,4477,1560461061876202944,base_link,-0.00555362075183,0.00797332203277,-0.421869048757,-0.906604758222,1.0,0.0,0.0,0.0,1.0,0.0,0.0,0.0,1.0,-0.00326658110134,0.00280704465695,-0.0111374650151,1.21846967915e-07,0.0,0.0,0.0,1.21846967915e-07,0.0,0.0,0.0,1.21846967915e-07,0.199271783233,0.082662589848,9.76604270935,9e-08,0.0,0.0,0.0,9e-08,0.0,0.0,0.0,9e-08
1560461061903220430,4478,1560461061896202944,base_link,-0.00552419566613,0.00796315937393,-0.421823445867,-0.906626253114,1.0,0.0,0.0,0.0,1.0,0.0,0.0,0.0,1.0,-0.000814025523141,0.000786186428741,-0.0109447883442,1.21846967915e-07,0.0,0.0,0.0,1.21846967915e-07,0.0,0.0,0.0,1.21846967915e-07,0.17853435874,-0.00886141136289,9.81723690033,9e-08,0.0,0.0,0.0,9e-08,0.0,0.0,0.0,9e-08
1560461061920501284,4479,1560461061916202944,base_link,-0.00554618759534,0.00797056487155,-0.421780772183,-0.906645914619,1.0,0.0,0.0,0.0,1.0,0.0,0.0,0.0,1.0,0.00228818436153,-0.00208083889447,-0.00959227606654,1.21846967915e-07,0.0,0.0,0.0,1.21846967915e-07,0.0,0.0,0.0,1.21846967915e-07,0.194815590978,0.00152376294136,9.78930091858,9e-08,0.0,0.0,0.0,9e-08,0.0,0.0,0.0,9e-08
1560461061940788945,4480,1560461061936202944,base_link,-0.00555698006969,0.00797590542056,-0.421749752102,-0.906660160254,1.0,0.0,0.0,0.0,1.0,0.0,0.0,0.0,1.0,-0.0022850567475,0.00260232156143,-0.00933537911624,1.21846967915e-07,0.0,0.0,0.0,1.21846967915e-07,0.0,0.0,0.0,1.21846967915e-07,0.211457878351,0.0329497307539,9.81630706787,9e-08,0.0,0.0,0.0,9e-08,0.0,0.0,0.0,9e-08
1560461061959603553,4481,1560461061956202944,base_link,-0.0055159648476,0.0079523200606,-0.421704465314,-0.90668167622,1.0,0.0,0.0,0.0,1.0,0.0,0.0,0.0,1.0,-0.00324850459583,0.00281302677467,-0.00974557548761,1.21846967915e-07,0.0,0.0,0.0,1.21846967915e-07,0.0,0.0,0.0,1.21846967915e-07,0.14586135745,0.0109394788742,9.78959274292,9e-08,0.0,0.0,0.0,9e-08,0.0,0.0,0.0,9e-08
1560461061980053907,4482,1560461061976201152,base_link,-0.00552717796725,0.00796513986422,-0.421672665517,-0.906696364397,1.0,0.0,0.0,0.0,1.0,0.0,0.0,0.0,1.0,0.00155881978571,-0.00335295940749,-0.00839281547815,1.21846967915e-07,0.0,0.0,0.0,1.21846967915e-07,0.0,0.0,0.0,1.21846967915e-07,0.200769349933,0.0263577997684,9.83229351044,9e-08,0.0,0.0,0.0,9e-08,0.0,0.0,0.0,9e-08
1560461062002781856,4483,1560461062000201152,base_link,-0.00554232103358,0.00797510314871,-0.421630645109,-0.9067157098,1.0,0.0,0.0,0.0,1.0,0.0,0.0,0.0,1.0,-0.00188406265806,0.00311482325196,-0.00890712160617,1.21846967915e-07,0.0,0.0,0.0,1.21846967915e-07,0.0,0.0,0.0,1.21846967915e-07,0.218764588237,0.0647109299898,9.79231357574,9e-08,0.0,0.0,0.0,9e-08,0.0,0.0,0.0,9e-08
1560461062020125460,4484,1560461062016201152,base_link,-0.00552954773966,0.00795983825165,-0.421601795591,-0.906729386453,1.0,0.0,0.0,0.0,1.0,0.0,0.0,0.0,1.0,-0.000475100474432,0.00206799781881,-0.00891708303243,1.21846967915e-07,0.0,0.0,0.0,1.21846967915e-07,0.0,0.0,0.0,1.21846967915e-07,0.169147461653,0.0173206329346,9.81656932831,9e-08,0.0,0.0,0.0,9e-08,0.0,0.0,0.0,9e-08
1560461062040735770,4485,1560461062036201152,base_link,-0.00553533700443,0.00796389949563,-0.421566729413,-0.906745570843,1.0,0.0,0.0,0.0,1.0,0.0,0.0,0.0,1.0,0.0014419334475,-0.00218644365668,-0.00881225708872,1.21846967915e-07,0.0,0.0,0.0,1.21846967915e-07,0.0,0.0,0.0,1.21846967915e-07,0.205115616322,0.039032228291,9.79229545593,9e-08,0.0,0.0,0.0,9e-08,0.0,0.0,0.0,9e-08
1560461062059443104,4486,1560461062056201152,base_link,-0.00554064668417,0.00797195036688,-0.421525825896,-0.90676438941,1.0,0.0,0.0,0.0,1.0,0.0,0.0,0.0,1.0,-6.87440478941e-05,0.000473841268104,-0.0111490404233,1.21846967915e-07,0.0,0.0,0.0,1.21846967915e-07,0.0,0.0,0.0,1.21846967915e-07,0.195453286171,0.0757675543427,9.8284072876,9e-08,0.0,0.0,0.0,9e-08,0.0,0.0,0.0,9e-08
1560461062081113289,4487,1560461062076196800,base_link,-0.00551452238817,0.00795774012885,-0.42148652396,-0.906783039391,1.0,0.0,0.0,0.0,1.0,0.0,0.0,0.0,1.0,-0.00208190199919,0.00194852892309,-0.00974403321743,1.21846967915e-07,0.0,0.0,0.0,1.21846967915e-07,0.0,0.0,0.0,1.21846967915e-07,0.203867018223,0.00937064737082,9.8507976532,9e-08,0.0,0.0,0.0,9e-08,0.0,0.0,0.0,9e-08
1560461062100853166,4488,1560461062096196800,base_link,-0.00552083799464,0.00796386706232,-0.421447685639,-0.906801057169,1.0,0.0,0.0,0.0,1.0,0.0,0.0,0.0,1.0,0.00142467429396,-0.00229984079488,-0.00986901763827,1.21846967915e-07,0.0,0.0,0.0,1.21846967915e-07,0.0,0.0,0.0,1.21846967915e-07,0.149629473686,0.0379464402795,9.77261543274,9e-08,0.0,0.0,0.0,9e-08,0.0,0.0,0.0,9e-08
1560461062122322004,4489,1560461062118196800,base_link,-0.00553228473296,0.00796963336035,-0.421410870367,-0.906817979128,1.0,0.0,0.0,0.0,1.0,0.0,0.0,0.0,1.0,0.000688463915139,-6.2036444433e-05,-0.00976459681988,1.21846967915e-07,0.0,0.0,0.0,1.21846967915e-07,0.0,0.0,0.0,1.21846967915e-07,0.21345128119,0.052361369133,9.8069858551,9e-08,0.0,0.0,0.0,9e-08,0.0,0.0,0.0,9e-08
1560461062141579156,4490,1560461062138196800,base_link,-0.0055347476071,0.00796353136925,-0.421371779165,-0.906836165493,1.0,0.0,0.0,0.0,1.0,0.0,0.0,0.0,1.0,0.000367832952179,-0.00112697144505,-0.00985776633024,1.21846967915e-07,0.0,0.0,0.0,1.21846967915e-07,0.0,0.0,0.0,1.21846967915e-07,0.180371820927,0.0399110689759,9.79050350189,9e-08,0.0,0.0,0.0,9e-08,0.0,0.0,0.0,9e-08
1560461062160340454,4491,1560461062158196800,base_link,-0.00554170941036,0.00795847539379,-0.421334521351,-0.906853445701,1.0,0.0,0.0,0.0,1.0,0.0,0.0,0.0,1.0,0.000787481898442,0.00121186475735,-0.010296728462,1.21846967915e-07,0.0,0.0,0.0,1.21846967915e-07,0.0,0.0,0.0,1.21846967915e-07,0.192172408104,0.0324710309505,9.81911373138,9e-08,0.0,0.0,0.0,9e-08,0.0,0.0,0.0,9e-08
1560461062180865990,4492,1560461062178194752,base_link,-0.00553638721829,0.00796273074377,-0.421301541442,-0.906868808228,1.0,0.0,0.0,0.0,1.0,0.0,0.0,0.0,1.0,-0.000175712746568,-0.000386064260965,-0.0105888554826,1.21846967915e-07,0.0,0.0,0.0,1.21846967915e-07,0.0,0.0,0.0,1.21846967915e-07,0.180818408728,0.0475901141763,9.8199672699,9e-08,0.0,0.0,0.0,9e-08,0.0,0.0,0.0,9e-08
1560461062201088020,4493,1560461062198194752,base_link,-0.00553864479118,0.00796204972643,-0.421262703121,-0.906886910299,1.0,0.0,0.0,0.0,1.0,0.0,0.0,0.0,1.0,0.00100469519384,0.000364021456335,-0.00996631942689,1.21846967915e-07,0.0,0.0,0.0,1.21846967915e-07,0.0,0.0,0.0,1.21846967915e-07,0.18049544096,0.0440945550799,9.79410648346,9e-08,0.0,0.0,0.0,9e-08,0.0,0.0,0.0,9e-08
1560461062220315188,4494,1560461062218194752,base_link,-0.00554709548126,0.00796506956459,-0.421224391636,-0.906904569829,1.0,0.0,0.0,0.0,1.0,0.0,0.0,0.0,1.0,0.000357254175469,-0.00197762669995,-0.00951149594039,1.21846967915e-07,0.0,0.0,0.0,1.21846967915e-07,0.0,0.0,0.0,1.21846967915e-07,0.188672751188,0.0106049403548,9.80822181702,9e-08,0.0,0.0,0.0,9e-08,0.0,0.0,0.0,9e-08
1560461062241196164,4495,1560461062238194752,base_link,-0.00554857341977,0.00796926827974,-0.421186944161,-0.90692187111,1.0,0.0,0.0,0.0,1.0,0.0,0.0,0.0,1.0,-0.000166903540958,0.0013226805022,-0.0102818161249,1.21846967915e-07,0.0,0.0,0.0,1.21846967915e-07,0.0,0.0,0.0,1.21846967915e-07,0.19027993083,0.0456275567412,9.80427265167,9e-08,0.0,0.0,0.0,9e-08,0.0,0.0,0.0,9e-08
1560461062260975637,4496,1560461062258194752,base_link,-0.00554363137251,0.0079616795421,-0.421147220756,-0.906940436797,1.0,0.0,0.0,0.0,1.0,0.0,0.0,0.0,1.0,0.000684301252477,0.00239140633494,-0.00975316483527,1.21846967915e-07,0.0,0.0,0.0,1.21846967915e-07,0.0,0.0,0.0,1.21846967915e-07,0.189554587007,0.00767692923546,9.82686424255,9e-08,0.0,0.0,0.0,9e-08,0.0,0.0,0.0,9e-08
1560461062281158096,4497,1560461062278192448,base_link,-0.00554246138587,0.00796219625258,-0.421112049211,-0.906956810847,1.0,0.0,0.0,0.0,1.0,0.0,0.0,0.0,1.0,3.88967455365e-05,0.000784086820204,-0.0105832722038,1.21846967915e-07,0.0,0.0,0.0,1.21846967915e-07,0.0,0.0,0.0,1.21846967915e-07,0.204375818372,0.0110570117831,9.80667209625,9e-08,0.0,0.0,0.0,9e-08,0.0,0.0,0.0,9e-08
1560461062300934547,4498,1560461062298192448,base_link,-0.00554720076606,0.00795663896012,-0.421081239865,-0.906971098629,1.0,0.0,0.0,0.0,1.0,0.0,0.0,0.0,1.0,0.00111700571142,5.11427642778e-05,-0.00930103473365,1.21846967915e-07,0.0,0.0,0.0,1.21846967915e-07,0.0,0.0,0.0,1.21846967915e-07,0.207238152623,0.0435345545411,9.82455348969,9e-08,0.0,0.0,0.0,9e-08,0.0,0.0,0.0,9e-08
1560461062321080832,4499,1560461062318192448,base_link,-0.00554084490606,0.00795718382338,-0.421043033747,-0.906988821379,1.0,0.0,0.0,0.0,1.0,0.0,0.0,0.0,1.0,-0.000370034889784,0.000573501863983,-0.00937739107758,1.21846967915e-07,0.0,0.0,0.0,1.21846967915e-07,0.0,0.0,0.0,1.21846967915e-07,0.208710804582,0.00496879220009,9.82974243164,9e-08,0.0,0.0,0.0,9e-08,0.0,0.0,0.0,9e-08
1560461062340691702,4500,1560461062338192448,base_link,-0.00554014676657,0.00796820135531,-0.421018167106,-0.907000369615,1.0,0.0,0.0,0.0,1.0,0.0,0.0,0.0,1.0,-0.00101133633871,-0.00112593604717,-0.00946890190244,1.21846967915e-07,0.0,0.0,0.0,1.21846967915e-07,0.0,0.0,0.0,1.21846967915e-07,0.21576847136,0.0357822030783,9.7602596283,9e-08,0.0,0.0,0.0,9e-08,0.0,0.0,0.0,9e-08
1560461062361481336,4501,1560461062358192448,base_link,-0.00553433214783,0.00795762348416,-0.420980445677,-0.907017944851,1.0,0.0,0.0,0.0,1.0,0.0,0.0,0.0,1.0,-0.00112081679981,0.00270803296007,-0.00969708617777,1.21846967915e-07,0.0,0.0,0.0,1.21846967915e-07,0.0,0.0,0.0,1.21846967915e-07,0.172076165676,0.0266732871532,9.80391597748,9e-08,0.0,0.0,0.0,9e-08,0.0,0.0,0.0,9e-08
1560461062381034763,4502,1560461062378190144,base_link,-0.00553354247065,0.00795787447193,-0.420947360401,-0.907033328451,1.0,0.0,0.0,0.0,1.0,0.0,0.0,0.0,1.0,0.000469649035949,-0.000489394064061,-0.0100212264806,1.21846967915e-07,0.0,0.0,0.0,1.21846967915e-07,0.0,0.0,0.0,1.21846967915e-07,0.194987922907,0.0408787801862,9.79418945312,9e-08,0.0,0.0,0.0,9e-08,0.0,0.0,0.0,9e-08
1560461062401762596,4503,1560461062398190144,base_link,-0.00553612585844,0.0079607517352,-0.420918300148,-0.907046794369,1.0,0.0,0.0,0.0,1.0,0.0,0.0,0.0,1.0,0.000255538558122,-0.000381395424483,-0.0102281793952,1.21846967915e-07,0.0,0.0,0.0,1.21846967915e-07,0.0,0.0,0.0,1.21846967915e-07,0.184292420745,0.0317489132285,9.84595966339,9e-08,0.0,0.0,0.0,9e-08,0.0,0.0,0.0,9e-08
1560461062420268810,4504,1560461062418190144,base_link,-0.0055432876946,0.00796695045002,-0.420887301141,-0.907061103224,1.0,0.0,0.0,0.0,1.0,0.0,0.0,0.0,1.0,0.000271146418527,-0.00176823604852,-0.00904997065663,1.21846967915e-07,0.0,0.0,0.0,1.21846967915e-07,0.0,0.0,0.0,1.21846967915e-07,0.1902551651,0.0424891933799,9.82752132416,9e-08,0.0,0.0,0.0,9e-08,0.0,0.0,0.0,9e-08
1560461062441085593,4505,1560461062438190144,base_link,-0.00554079148164,0.00797759549272,-0.4208544266,-0.907076191796,1.0,0.0,0.0,0.0,1.0,0.0,0.0,0.0,1.0,-0.00229824427515,-0.000599956605583,-0.0105095822364,1.21846967915e-07,0.0,0.0,0.0,1.21846967915e-07,0.0,0.0,0.0,1.21846967915e-07,0.182867243886,0.032027810812,9.8467092514,9e-08,0.0,0.0,0.0,9e-08,0.0,0.0,0.0,9e-08
1560461062461028779,4506,1560461062458190144,base_link,-0.00551592393552,0.00797094509869,-0.420812258678,-0.907095937594,1.0,0.0,0.0,0.0,1.0,0.0,0.0,0.0,1.0,-0.00115091446787,0.00270056398585,-0.0119212158024,1.21846967915e-07,0.0,0.0,0.0,1.21846967915e-07,0.0,0.0,0.0,1.21846967915e-07,0.18826380372,0.00715804845095,9.81596374512,9e-08,0.0,0.0,0.0,9e-08,0.0,0.0,0.0,9e-08
1560461062482513783,4507,1560461062480188096,base_link,-0.00551637388605,0.00797561467316,-0.420781322891,-0.907110351816,1.0,0.0,0.0,0.0,1.0,0.0,0.0,0.0,1.0,-5.25759533048e-05,-0.00081090599997,-0.00936118047684,1.21846967915e-07,0.0,0.0,0.0,1.21846967915e-07,0.0,0.0,0.0,1.21846967915e-07,0.189039751887,0.0439028069377,9.8287563324,9e-08,0.0,0.0,0.0,9e-08,0.0,0.0,0.0,9e-08
1560461062500369311,4508,1560461062496188096,base_link,-0.00552361795796,0.00797222440371,-0.420757088453,-0.907121605025,1.0,0.0,0.0,0.0,1.0,0.0,0.0,0.0,1.0,-0.00048389704898,0.000573797733523,-0.00978330429643,1.21846967915e-07,0.0,0.0,0.0,1.21846967915e-07,0.0,0.0,0.0,1.21846967915e-07,0.186867073178,0.0621965676546,9.77922153473,9e-08,0.0,0.0,0.0,9e-08,0.0,0.0,0.0,9e-08
1560461062522764378,4509,1560461062520188096,base_link,-0.00550205128387,0.00796546707852,-0.42072088431,-0.907138505911,1.0,0.0,0.0,0.0,1.0,0.0,0.0,0.0,1.0,-0.000689960201271,0.00121244660113,-0.00967251509428,1.21846967915e-07,0.0,0.0,0.0,1.21846967915e-07,0.0,0.0,0.0,1.21846967915e-07,0.180993109941,-0.0357899516821,9.83839702606,9e-08,0.0,0.0,0.0,9e-08,0.0,0.0,0.0,9e-08
1560461062539542568,4510,1560461062536188096,base_link,-0.00552166710217,0.00797092204963,-0.420697935351,-0.907148979403,1.0,0.0,0.0,0.0,1.0,0.0,0.0,0.0,1.0,0.00198205653578,-0.00186761608347,-0.00841537117958,1.21846967915e-07,0.0,0.0,0.0,1.21846967915e-07,0.0,0.0,0.0,1.21846967915e-07,0.209290862083,0.0366417393088,9.81342697144,9e-08,0.0,0.0,0.0,9e-08,0.0,0.0,0.0,9e-08
1560461062564340636,4511,1560461062560184256,base_link,-0.00550649473062,0.00797157351479,-0.420673110857,-0.907160569786,1.0,0.0,0.0,0.0,1.0,0.0,0.0,0.0,1.0,-0.00377001287416,0.00153535429854,-0.00920712482184,1.21846967915e-07,0.0,0.0,0.0,1.21846967915e-07,0.0,0.0,0.0,1.21846967915e-07,0.194992959499,0.0580153986812,9.81492900848,9e-08,0.0,0.0,0.0,9e-08,0.0,0.0,0.0,9e-08
1560461062579820489,4512,1560461062576184256,base_link,-0.00547825346098,0.00796496592615,-0.420642322584,-0.907175173669,1.0,0.0,0.0,0.0,1.0,0.0,0.0,0.0,1.0,-0.000813425052911,0.000995274633169,-0.0105152651668,1.21846967915e-07,0.0,0.0,0.0,1.21846967915e-07,0.0,0.0,0.0,1.21846967915e-07,0.162926614285,0.0039691850543,9.83510971069,9e-08,0.0,0.0,0.0,9e-08,0.0,0.0,0.0,9e-08
1560461062603092760,4513,1560461062600184256,base_link,-0.00550663919882,0.00798179190296,-0.420605844487,-0.907191674161,1.0,0.0,0.0,0.0,1.0,0.0,0.0,0.0,1.0,0.00262013054453,-0.00261966860853,-0.00809634663165,1.21846967915e-07,0.0,0.0,0.0,1.21846967915e-07,0.0,0.0,0.0,1.21846967915e-07,0.211922049522,0.0387888550758,9.86632919312,9e-08,0.0,0.0,0.0,9e-08,0.0,0.0,0.0,9e-08
1560461062620337763,4514,1560461062616184256,base_link,-0.00550795093716,0.00798216998983,-0.420585192531,-0.907201283642,1.0,0.0,0.0,0.0,1.0,0.0,0.0,0.0,1.0,-0.00260215695016,0.00227937335148,-0.00900404993445,1.21846967915e-07,0.0,0.0,0.0,1.21846967915e-07,0.0,0.0,0.0,1.21846967915e-07,0.210463061929,0.0671052485704,9.82189083099,9e-08,0.0,0.0,0.0,9e-08,0.0,0.0,0.0,9e-08
1560461062642672810,4515,1560461062636184256,base_link,-0.00547199942843,0.00796555911011,-0.420544204721,-0.907220692266,1.0,0.0,0.0,0.0,1.0,0.0,0.0,0.0,1.0,-0.00124469492584,0.00312172994018,-0.0109294643626,1.21846967915e-07,0.0,0.0,0.0,1.21846967915e-07,0.0,0.0,0.0,1.21846967915e-07,0.157930582762,0.0290317907929,9.7987947464,9e-08,0.0,0.0,0.0,9e-08,0.0,0.0,0.0,9e-08
1560461062662477779,4516,1560461062660182208,base_link,-0.00550159268994,0.00798036360224,-0.420518326556,-0.907232240502,1.0,0.0,0.0,0.0,1.0,0.0,0.0,0.0,1.0,0.00315429829061,-0.00399515777826,-0.00828059390187,1.21846967915e-07,0.0,0.0,0.0,1.21846967915e-07,0.0,0.0,0.0,1.21846967915e-07,0.192083895206,0.0669892802835,9.88248443604,9e-08,0.0,0.0,0.0,9e-08,0.0,0.0,0.0,9e-08
1560461062679738071,4517,1560461062676182208,base_link,-0.0055068423598,0.00798260421761,-0.420493396695,-0.907243851959,1.0,0.0,0.0,0.0,1.0,0.0,0.0,0.0,1.0,-0.00230059586465,0.00216795923188,-0.0102574918419,1.21846967915e-07,0.0,0.0,0.0,1.21846967915e-07,0.0,0.0,0.0,1.21846967915e-07,0.221426025033,0.0797531306744,9.85701656342,9e-08,0.0,0.0,0.0,9e-08,0.0,0.0,0.0,9e-08
1560461062702332808,4518,1560461062700182208,base_link,-0.00544295514608,0.00796525733209,-0.42045268284,-0.907263239509,1.0,0.0,0.0,0.0,1.0,0.0,0.0,0.0,1.0,-0.00219806865789,0.00311843631789,-0.0105811050162,1.21846967915e-07,0.0,0.0,0.0,1.21846967915e-07,0.0,0.0,0.0,1.21846967915e-07,0.158347561955,-0.0238819345832,9.7722492218,9e-08,0.0,0.0,0.0,9e-08,0.0,0.0,0.0,9e-08
1560461062723123260,4519,1560461062720182208,base_link,-0.00547150873045,0.0079772595527,-0.420424360157,-0.907276052151,1.0,0.0,0.0,0.0,1.0,0.0,0.0,0.0,1.0,0.00367547990754,-0.0034596119076,-0.00891827046871,1.21846967915e-07,0.0,0.0,0.0,1.21846967915e-07,0.0,0.0,0.0,1.21846967915e-07,0.205724209547,0.051532946527,9.81051826477,9e-08,0.0,0.0,0.0,9e-08,0.0,0.0,0.0,9e-08
1560461062739008629,4520,1560461062736182208,base_link,-0.00549596871984,0.00798534878417,-0.420406047352,-0.907284249713,1.0,0.0,0.0,0.0,1.0,0.0,0.0,0.0,1.0,5.10692334501e-05,0.00238389498554,-0.00953683350235,1.21846967915e-07,0.0,0.0,0.0,1.21846967915e-07,0.0,0.0,0.0,1.21846967915e-07,0.210788607597,0.0692337751389,9.82943248749,9e-08,0.0,0.0,0.0,9e-08,0.0,0.0,0.0,9e-08
1560461062763879360,4521,1560461062760178368,base_link,-0.00543979898921,0.0079705076605,-0.420366387167,-0.907303089355,1.0,0.0,0.0,0.0,1.0,0.0,0.0,0.0,1.0,-0.00121606595349,0.00249452656135,-0.00963041558862,1.21846967915e-07,0.0,0.0,0.0,1.21846967915e-07,0.0,0.0,0.0,1.21846967915e-07,0.176204189658,0.00404320657253,9.84302043915,9e-08,0.0,0.0,0.0,9e-08,0.0,0.0,0.0,9e-08
1560461062780190867,4522,1560461062776178368,base_link,-0.0054436898348,0.00797033232302,-0.420344007191,-0.907313499626,1.0,0.0,0.0,0.0,1.0,0.0,0.0,0.0,1.0,0.00315069616772,-0.00261624366976,-0.0086965225637,1.21846967915e-07,0.0,0.0,0.0,1.21846967915e-07,0.0,0.0,0.0,1.21846967915e-07,0.179638206959,-0.0218972712755,9.78022289276,9e-08,0.0,0.0,0.0,9e-08,0.0,0.0,0.0,9e-08
1560461062802562459,4523,1560461062800178368,base_link,-0.00547605935532,0.00798434014094,-0.420315747729,-0.907326333342,1.0,0.0,0.0,0.0,1.0,0.0,0.0,0.0,1.0,0.00068079913035,0.000885921530426,-0.0101603092626,1.21846967915e-07,0.0,0.0,0.0,1.21846967915e-07,0.0,0.0,0.0,1.21846967915e-07,0.19179071486,0.0659608617425,9.7920665741,9e-08,0.0,0.0,0.0,9e-08,0.0,0.0,0.0,9e-08
1560461062821095801,4524,1560461062816178368,base_link,-0.00544662727258,0.00798043011524,-0.420283252509,-0.907341548354,1.0,0.0,0.0,0.0,1.0,0.0,0.0,0.0,1.0,-0.00370497955009,0.00182753382251,-0.0104865599424,1.21846967915e-07,0.0,0.0,0.0,1.21846967915e-07,0.0,0.0,0.0,1.21846967915e-07,0.162013292313,0.0272778868675,9.83168983459,9e-08,0.0,0.0,0.0,9e-08,0.0,0.0,0.0,9e-08
1560461062839923342,4525,1560461062837178368,base_link,-0.00543175956017,0.00797860899272,-0.420255309148,-0.907354656024,1.0,0.0,0.0,0.0,1.0,0.0,0.0,0.0,1.0,0.00156630156562,-0.000376694399165,-0.00772209884599,1.21846967915e-07,0.0,0.0,0.0,1.21846967915e-07,0.0,0.0,0.0,1.21846967915e-07,0.194020390511,0.00389619916678,9.81905651093,9e-08,0.0,0.0,0.0,9e-08,0.0,0.0,0.0,9e-08
1560461062861966546,4526,1560461062857176064,base_link,-0.00546177437249,0.00799624777809,-0.420221085907,-0.90737008177,1.0,0.0,0.0,0.0,1.0,0.0,0.0,0.0,1.0,0.00121444172692,-0.00134911586065,-0.0100548118353,1.21846967915e-07,0.0,0.0,0.0,1.21846967915e-07,0.0,0.0,0.0,1.21846967915e-07,0.191120356321,0.0327545329928,9.80983638763,9e-08,0.0,0.0,0.0,9e-08,0.0,0.0,0.0,9e-08
1560461062880903138,4527,1560461062877176064,base_link,-0.00543855697427,0.00799053136481,-0.420186841593,-0.90738620294,1.0,0.0,0.0,0.0,1.0,0.0,0.0,0.0,1.0,-0.00230276724324,0.00259182858281,-0.0107632949948,1.21846967915e-07,0.0,0.0,0.0,1.21846967915e-07,0.0,0.0,0.0,1.21846967915e-07,0.210912540555,0.0310429930687,9.82745170593,9e-08,0.0,0.0,0.0,9e-08,0.0,0.0,0.0,9e-08
1560461062900543468,4528,1560461062897176064,base_link,-0.00542795597173,0.00798572374295,-0.420150258128,-0.907403230267,1.0,0.0,0.0,0.0,1.0,0.0,0.0,0.0,1.0,0.00164233311079,-0.000603859603871,-0.0101542193443,1.21846967915e-07,0.0,0.0,0.0,1.21846967915e-07,0.0,0.0,0.0,1.21846967915e-07,0.204217225313,-0.00644122809172,9.85857486725,9e-08,0.0,0.0,0.0,9e-08,0.0,0.0,0.0,9e-08
1560461062921983858,4529,1560461062917176064,base_link,-0.00546033092524,0.00800453218569,-0.420129205777,-0.907412565794,1.0,0.0,0.0,0.0,1.0,0.0,0.0,0.0,1.0,0.000926789070945,-0.00196835887618,-0.00758388545364,1.21846967915e-07,0.0,0.0,0.0,1.21846967915e-07,0.0,0.0,0.0,1.21846967915e-07,0.233309686184,0.0507726147771,9.78957366943,9e-08,0.0,0.0,0.0,9e-08,0.0,0.0,0.0,9e-08
1560461062941633913,4530,1560461062937176064,base_link,-0.00544076737891,0.00800104535715,-0.420090852145,-0.907430520351,1.0,0.0,0.0,0.0,1.0,0.0,0.0,0.0,1.0,-0.00338976853527,0.00321915000677,-0.0117057682946,1.21846967915e-07,0.0,0.0,0.0,1.21846967915e-07,0.0,0.0,0.0,1.21846967915e-07,0.21298199892,0.070022650063,9.79230499268,9e-08,0.0,0.0,0.0,9e-08,0.0,0.0,0.0,9e-08
1560461062961019657,4531,1560461062957176064,base_link,-0.00543253549024,0.00799623147912,-0.420052393146,-0.907448411688,1.0,0.0,0.0,0.0,1.0,0.0,0.0,0.0,1.0,0.0016241739504,-0.00367408804595,-0.0101459864527,1.21846967915e-07,0.0,0.0,0.0,1.21846967915e-07,0.0,0.0,0.0,1.21846967915e-07,0.182355433702,-0.0296145826578,9.88218688965,9e-08,0.0,0.0,0.0,9e-08,0.0,0.0,0.0,9e-08
1560461062981265341,4532,1560461062977174016,base_link,-0.00546421370366,0.00802316372691,-0.42002478696,-0.907460676421,1.0,0.0,0.0,0.0,1.0,0.0,0.0,0.0,1.0,0.000786008255091,-0.00124880683143,-0.0100275669247,1.21846967915e-07,0.0,0.0,0.0,1.21846967915e-07,0.0,0.0,0.0,1.21846967915e-07,0.219700574875,0.107639484107,9.76789093018,9e-08,0.0,0.0,0.0,9e-08,0.0,0.0,0.0,9e-08
1560461062999784837,4533,1560461062997174016,base_link,-0.00543526128828,0.00800038351992,-0.419984368132,-0.907479853237,1.0,0.0,0.0,0.0,1.0,0.0,0.0,0.0,1.0,-0.00113810878247,0.0042958650738,-0.0108571927994,1.21846967915e-07,0.0,0.0,0.0,1.21846967915e-07,0.0,0.0,0.0,1.21846967915e-07,0.182832330465,-0.0114504359663,9.85533809662,9e-08,0.0,0.0,0.0,9e-08,0.0,0.0,0.0,9e-08
1560461063020819798,4534,1560461063017174016,base_link,-0.00544349111899,0.00800813524732,-0.419958658555,-0.907491654355,1.0,0.0,0.0,0.0,1.0,0.0,0.0,0.0,1.0,0.00283093121834,-0.00506284832954,-0.00851984322071,1.21846967915e-07,0.0,0.0,0.0,1.21846967915e-07,0.0,0.0,0.0,1.21846967915e-07,0.188754379749,0.0252715200186,9.79955101013,9e-08,0.0,0.0,0.0,9e-08,0.0,0.0,0.0,9e-08
1560461063039999848,4535,1560461063037174016,base_link,-0.00546787430563,0.00801161507882,-0.419942115917,-0.907499177567,1.0,0.0,0.0,0.0,1.0,0.0,0.0,0.0,1.0,-0.000383628415875,0.00184932746924,-0.00989889446646,1.21846967915e-07,0.0,0.0,0.0,1.21846967915e-07,0.0,0.0,0.0,1.21846967915e-07,0.226261541247,0.0581427589059,9.82033729553,9e-08,0.0,0.0,0.0,9e-08,0.0,0.0,0.0,9e-08
1560461063061770888,4536,1560461063057172224,base_link,-0.00542728260997,0.00800002502475,-0.419906270022,-0.907515973087,1.0,0.0,0.0,0.0,1.0,0.0,0.0,0.0,1.0,-0.00389985507354,0.00194814661518,-0.0106959883124,1.21846967915e-07,0.0,0.0,0.0,1.21846967915e-07,0.0,0.0,0.0,1.21846967915e-07,0.182864546776,0.0120776519179,9.85454940796,9e-08,0.0,0.0,0.0,9e-08,0.0,0.0,0.0,9e-08
1560461063080964504,4537,1560461063077172224,base_link,-0.00543123782829,0.0080090484016,-0.419884290441,-0.907526067257,1.0,0.0,0.0,0.0,1.0,0.0,0.0,0.0,1.0,0.0016574912006,-0.00155679089949,-0.00893565360457,1.21846967915e-07,0.0,0.0,0.0,1.21846967915e-07,0.0,0.0,0.0,1.21846967915e-07,0.15561029315,0.0458497554064,9.84167385101,9e-08,0.0,0.0,0.0,9e-08,0.0,0.0,0.0,9e-08
1560461063103584474,4538,1560461063101172224,base_link,-0.00546083043125,0.00801467344184,-0.419850488668,-0.907541493003,1.0,0.0,0.0,0.0,1.0,0.0,0.0,0.0,1.0,0.00154849723913,-0.000701011624187,-0.00883357319981,1.21846967915e-07,0.0,0.0,0.0,1.21846967915e-07,0.0,0.0,0.0,1.21846967915e-07,0.166117548943,-0.00548471882939,9.84072494507,9e-08,0.0,0.0,0.0,9e-08,0.0,0.0,0.0,9e-08
1560461063119861888,4539,1560461063117172224,base_link,-0.0054619157126,0.00802272085572,-0.419833313827,-0.907549395537,1.0,0.0,0.0,0.0,1.0,0.0,0.0,0.0,1.0,-0.000361428130418,-0.000701810000464,-0.00880641583353,1.21846967915e-07,0.0,0.0,0.0,1.21846967915e-07,0.0,0.0,0.0,1.21846967915e-07,0.220770597458,0.0428769215941,9.804022789,9e-08,0.0,0.0,0.0,9e-08,0.0,0.0,0.0,9e-08
1560461063142082176,4540,1560461063137172224,base_link,-0.00544876136837,0.00802335231759,-0.419802167306,-0.907563851906,1.0,0.0,0.0,0.0,1.0,0.0,0.0,0.0,1.0,-0.00136550399475,0.00151556916535,-0.0109393317252,1.21846967915e-07,0.0,0.0,0.0,1.21846967915e-07,0.0,0.0,0.0,1.21846967915e-07,0.203909784555,0.0023894533515,9.79526424408,9e-08,0.0,0.0,0.0,9e-08,0.0,0.0,0.0,9e-08
1560461063159872713,4541,1560461063157172224,base_link,-0.00546016093844,0.00801919542002,-0.419774835075,-0.907576432741,1.0,0.0,0.0,0.0,1.0,0.0,0.0,0.0,1.0,0.000914463133086,-0.000705730053596,-0.00882261246443,1.21846967915e-07,0.0,0.0,0.0,1.21846967915e-07,0.0,0.0,0.0,1.21846967915e-07,0.217295646667,0.0189905539155,9.80895900726,9e-08,0.0,0.0,0.0,9e-08,0.0,0.0,0.0,9e-08
1560461063181248832,4542,1560461063178170176,base_link,-0.00546760216211,0.00803419212483,-0.419746912788,-0.907589266456,1.0,0.0,0.0,0.0,1.0,0.0,0.0,0.0,1.0,-0.00207771663554,0.000673361471854,-0.00984740164131,1.21846967915e-07,0.0,0.0,0.0,1.21846967915e-07,0.0,0.0,0.0,1.21846967915e-07,0.207538276911,0.0696845054626,9.86683750153,9e-08,0.0,0.0,0.0,9e-08,0.0,0.0,0.0,9e-08
1560461063200839429,4543,1560461063198170176,base_link,-0.00544171173173,0.0080280667554,-0.41971658813,-0.907603406724,1.0,0.0,0.0,0.0,1.0,0.0,0.0,0.0,1.0,-0.00368294655345,0.00131922075525,-0.00993139576167,1.21846967915e-07,0.0,0.0,0.0,1.21846967915e-07,0.0,0.0,0.0,1.21846967915e-07,0.171525359154,0.0266250520945,9.80530261993,9e-08,0.0,0.0,0.0,9e-08,0.0,0.0,0.0,9e-08
1560461063220871887,4544,1560461063218170176,base_link,-0.00544475996962,0.00804550715424,-0.419697664195,-0.907611962534,1.0,0.0,0.0,0.0,1.0,0.0,0.0,0.0,1.0,-5.7122510043e-05,-0.00123618391808,-0.00890077091753,1.21846967915e-07,0.0,0.0,0.0,1.21846967915e-07,0.0,0.0,0.0,1.21846967915e-07,0.216207101941,0.00959851592779,9.82590293884,9e-08,0.0,0.0,0.0,9e-08,0.0,0.0,0.0,9e-08
1560461063240655946,4545,1560461063238170176,base_link,-0.00546109475455,0.00804603901125,-0.419670795579,-0.907624416928,1.0,0.0,0.0,0.0,1.0,0.0,0.0,0.0,1.0,0.00152752781287,0.000459691393189,-0.0104211596772,1.21846967915e-07,0.0,0.0,0.0,1.21846967915e-07,0.0,0.0,0.0,1.21846967915e-07,0.210139125586,0.0395893529058,9.83534908295,9e-08,0.0,0.0,0.0,9e-08,0.0,0.0,0.0,9e-08
1560461063261201878,4546,1560461063258170176,base_link,-0.00545286846352,0.00804570554078,-0.419645654984,-0.907635986238,1.0,0.0,0.0,0.0,1.0,0.0,0.0,0.0,1.0,-0.00165734940674,0.000683498510625,-0.00898705329746,1.21846967915e-07,0.0,0.0,0.0,1.21846967915e-07,0.0,0.0,0.0,1.21846967915e-07,0.204614520073,0.0181852728128,9.84910106659,9e-08,0.0,0.0,0.0,9e-08,0.0,0.0,0.0,9e-08
1560461063281189663,4547,1560461063278168128,base_link,-0.00543061031769,0.00804439306157,-0.419616299704,-0.90764966289,1.0,0.0,0.0,0.0,1.0,0.0,0.0,0.0,1.0,-0.00123606179841,0.000569602765609,-0.0101616382599,1.21846967915e-07,0.0,0.0,0.0,1.21846967915e-07,0.0,0.0,0.0,1.21846967915e-07,0.2165504843,0.0317784994841,9.81462192535,9e-08,0.0,0.0,0.0,9e-08,0.0,0.0,0.0,9e-08
1560461063300902051,4548,1560461063298168128,base_link,-0.00544038410601,0.00804806148375,-0.419586712617,-0.907663402763,1.0,0.0,0.0,0.0,1.0,0.0,0.0,0.0,1.0,0.00239838869311,-0.00272560794838,-0.00859697069973,1.21846967915e-07,0.0,0.0,0.0,1.21846967915e-07,0.0,0.0,0.0,1.21846967915e-07,0.168206095695,0.00303903222084,9.86193275452,9e-08,0.0,0.0,0.0,9e-08,0.0,0.0,0.0,9e-08
1560461063321712920,4549,1560461063318168128,base_link,-0.00546870711748,0.00805324258267,-0.419561803829,-0.907674571677,1.0,0.0,0.0,0.0,1.0,0.0,0.0,0.0,1.0,-0.000170535320649,0.000564512738492,-0.0101736122742,1.21846967915e-07,0.0,0.0,0.0,1.21846967915e-07,0.0,0.0,0.0,1.21846967915e-07,0.204795658588,0.0811156779528,9.77756977081,9e-08,0.0,0.0,0.0,9e-08,0.0,0.0,0.0,9e-08
1560461063341626302,4550,1560461063338168128,base_link,-0.00543005730494,0.00803849892359,-0.419526063302,-0.907691430417,1.0,0.0,0.0,0.0,1.0,0.0,0.0,0.0,1.0,-0.0027392662596,0.00216417014599,-0.0105725321919,1.21846967915e-07,0.0,0.0,0.0,1.21846967915e-07,0.0,0.0,0.0,1.21846967915e-07,0.160526931286,0.00626026839018,9.81424617767,9e-08,0.0,0.0,0.0,9e-08,0.0,0.0,0.0,9e-08
1560461063360817694,4551,1560461063358168128,base_link,-0.00544417353574,0.00804934152964,-0.419506254283,-0.907700534136,1.0,0.0,0.0,0.0,1.0,0.0,0.0,0.0,1.0,0.00401256000623,-0.00410521309823,-0.0075342352502,1.21846967915e-07,0.0,0.0,0.0,1.21846967915e-07,0.0,0.0,0.0,1.21846967915e-07,0.194677740335,0.00744634866715,9.86066532135,9e-08,0.0,0.0,0.0,9e-08,0.0,0.0,0.0,9e-08
1560461063381958870,4552,1560461063378166336,base_link,-0.00545604503527,0.00805948385593,-0.419484443289,-0.907710459719,1.0,0.0,0.0,0.0,1.0,0.0,0.0,0.0,1.0,-0.000931295799091,0.00162206601817,-0.0111003555357,1.21846967915e-07,0.0,0.0,0.0,1.21846967915e-07,0.0,0.0,0.0,1.21846967915e-07,0.232412397861,0.0461769253016,9.7892408371,9e-08,0.0,0.0,0.0,9e-08,0.0,0.0,0.0,9e-08
1560461063400583738,4553,1560461063398166336,base_link,-0.00541837793577,0.00804221517257,-0.419449545698,-0.90772689699,1.0,0.0,0.0,0.0,1.0,0.0,0.0,0.0,1.0,-0.00143828929868,0.00173931836616,-0.00960954278708,1.21846967915e-07,0.0,0.0,0.0,1.21846967915e-07,0.0,0.0,0.0,1.21846967915e-07,0.177685067058,-0.0312160328031,9.84330272675,9e-08,0.0,0.0,0.0,9e-08,0.0,0.0,0.0,9e-08
1560461063421936368,4554,1560461063418166336,base_link,-0.00544020810999,0.00805097834202,-0.419424931939,-0.907738023758,1.0,0.0,0.0,0.0,1.0,0.0,0.0,0.0,1.0,0.00249947281554,-0.00358087359928,-0.00931097194552,1.21846967915e-07,0.0,0.0,0.0,1.21846967915e-07,0.0,0.0,0.0,1.21846967915e-07,0.209986239672,0.0233343616128,9.81809616089,9e-08,0.0,0.0,0.0,9e-08,0.0,0.0,0.0,9e-08
1560461063439166532,4555,1560461063434166336,base_link,-0.00546726037751,0.00806256946622,-0.419403458119,-0.90774769646,1.0,0.0,0.0,0.0,1.0,0.0,0.0,0.0,1.0,0.00131166819483,2.89725721814e-05,-0.0111314542592,1.21846967915e-07,0.0,0.0,0.0,1.21846967915e-07,0.0,0.0,0.0,1.21846967915e-07,0.250050991774,0.0665977150202,9.83319568634,9e-08,0.0,0.0,0.0,9e-08,0.0,0.0,0.0,9e-08
1560461063462137231,4556,1560461063459164288,base_link,-0.00542667954784,0.00804427114852,-0.419366200305,-0.907765398136,1.0,0.0,0.0,0.0,1.0,0.0,0.0,0.0,1.0,-0.00164433731697,0.00269830273464,-0.00886155106127,1.21846967915e-07,0.0,0.0,0.0,1.21846967915e-07,0.0,0.0,0.0,1.21846967915e-07,0.188695847988,-0.00523757562041,9.82422542572,9e-08,0.0,0.0,0.0,9e-08,0.0,0.0,0.0,9e-08
1560461063481867882,4557,1560461063479164288,base_link,-0.0054337630172,0.00805452057061,-0.419330312264,-0.907781814333,1.0,0.0,0.0,0.0,1.0,0.0,0.0,0.0,1.0,0.00294658797793,-0.00284776557237,-0.00881317909807,1.21846967915e-07,0.0,0.0,0.0,1.21846967915e-07,0.0,0.0,0.0,1.21846967915e-07,0.195235431194,0.0186576321721,9.84702396393,9e-08,0.0,0.0,0.0,9e-08,0.0,0.0,0.0,9e-08
1560461063501761799,4558,1560461063499164288,base_link,-0.0054567305801,0.00805538309928,-0.41929773275,-0.907796607877,1.0,0.0,0.0,0.0,1.0,0.0,0.0,0.0,1.0,-0.000265349110123,0.000141979486216,-0.00960339512676,1.21846967915e-07,0.0,0.0,0.0,1.21846967915e-07,0.0,0.0,0.0,1.21846967915e-07,0.174909412861,0.0155491828918,9.81691837311,9e-08,0.0,0.0,0.0,9e-08,0.0,0.0,0.0,9e-08
1560461063521883984,4559,1560461063519164288,base_link,-0.00544808899443,0.00805615771225,-0.419259442338,-0.907814414921,1.0,0.0,0.0,0.0,1.0,0.0,0.0,0.0,1.0,0.000239450688241,0.00119773193728,-0.0113149788231,1.21846967915e-07,0.0,0.0,0.0,1.21846967915e-07,0.0,0.0,0.0,1.21846967915e-07,0.174105018377,0.0261502638459,9.83106899261,9e-08,0.0,0.0,0.0,9e-08,0.0,0.0,0.0,9e-08
1560461063543018214,4560,1560461063540164288,base_link,-0.00545708800513,0.00806238556767,-0.419227832202,-0.907828913437,1.0,0.0,0.0,0.0,1.0,0.0,0.0,0.0,1.0,0.00176733196713,-0.00272942963056,-0.00876080431044,1.21846967915e-07,0.0,0.0,0.0,1.21846967915e-07,0.0,0.0,0.0,1.21846967915e-07,0.173754051328,0.0179239735007,9.80238246918,9e-08,0.0,0.0,0.0,9e-08,0.0,0.0,0.0,9e-08
1560461063559276549,4561,1560461063556164288,base_link,-0.00547648312871,0.00806754361752,-0.419207117026,-0.907838333257,1.0,0.0,0.0,0.0,1.0,0.0,0.0,0.0,1.0,0.000808803888503,-0.00176834571175,-0.00843030773103,1.21846967915e-07,0.0,0.0,0.0,1.21846967915e-07,0.0,0.0,0.0,1.21846967915e-07,0.165454030037,0.0335915088654,9.78608322144,9e-08,0.0,0.0,0.0,9e-08,0.0,0.0,0.0,9e-08
1560461063583293284,4562,1560461063580161984,base_link,-0.00545637620084,0.00807058107175,-0.419172198362,-0.907854538721,1.0,0.0,0.0,0.0,1.0,0.0,0.0,0.0,1.0,-0.00219082809053,0.00205718306825,-0.00989551004022,1.21846967915e-07,0.0,0.0,0.0,1.21846967915e-07,0.0,0.0,0.0,1.21846967915e-07,0.197271496058,0.0132210254669,9.81509971619,9e-08,0.0,0.0,0.0,9e-08,0.0,0.0,0.0,9e-08
1560461063602441094,4563,1560461063600161984,base_link,-0.00544601046333,0.00807389511467,-0.419146004095,-0.90786665594,1.0,0.0,0.0,0.0,1.0,0.0,0.0,0.0,1.0,-0.000358265911927,-0.00198215153068,-0.00851314514875,1.21846967915e-07,0.0,0.0,0.0,1.21846967915e-07,0.0,0.0,0.0,1.21846967915e-07,0.187369704247,0.0143457502127,9.84336662292,9e-08,0.0,0.0,0.0,9e-08,0.0,0.0,0.0,9e-08
1560461063623576843,4564,1560461063620161984,base_link,-0.00546789225097,0.00809365046209,-0.419129082135,-0.907874137005,1.0,0.0,0.0,0.0,1.0,0.0,0.0,0.0,1.0,0.00069532712223,-0.00134586798958,-0.00895199086517,1.21846967915e-07,0.0,0.0,0.0,1.21846967915e-07,0.0,0.0,0.0,1.21846967915e-07,0.195874467492,0.0247526615858,9.84310626984,9e-08,0.0,0.0,0.0,9e-08,0.0,0.0,0.0,9e-08
1560461063639112445,4565,1560461063636161984,base_link,-0.00546043843263,0.00809278949746,-0.419098040982,-0.907888572301,1.0,0.0,0.0,0.0,1.0,0.0,0.0,0.0,1.0,-0.00221049180254,0.00226128683425,-0.0113706365228,1.21846967915e-07,0.0,0.0,0.0,1.21846967915e-07,0.0,0.0,0.0,1.21846967915e-07,0.203484892845,0.024264395237,9.82703971863,9e-08,0.0,0.0,0.0,9e-08,0.0,0.0,0.0,9e-08
1560461063664221636,4566,1560461063660158656,base_link,-0.00546227231445,0.00809739618093,-0.419065714349,-0.907903365845,1.0,0.0,0.0,0.0,1.0,0.0,0.0,0.0,1.0,3.21597763104e-05,-0.00242237700149,-0.0106286145747,1.21846967915e-07,0.0,0.0,0.0,1.21846967915e-07,0.0,0.0,0.0,1.21846967915e-07,0.225519806147,0.00964450836182,9.86519908905,9e-08,0.0,0.0,0.0,9e-08,0.0,0.0,0.0,9e-08
1560461063682153794,4567,1560461063680158656,base_link,-0.00545469345498,0.00808831649853,-0.419036485509,-0.90791700035,1.0,0.0,0.0,0.0,1.0,0.0,0.0,0.0,1.0,-0.000589073752053,0.00312433554791,-0.0096835680306,1.21846967915e-07,0.0,0.0,0.0,1.21846967915e-07,0.0,0.0,0.0,1.21846967915e-07,0.169435873628,0.0452094450593,9.83909606934,9e-08,0.0,0.0,0.0,9e-08,0.0,0.0,0.0,9e-08
1560461063702357500,4568,1560461063700158656,base_link,-0.00543768818943,0.00808679690708,-0.419002093681,-0.907933016153,1.0,0.0,0.0,0.0,1.0,0.0,0.0,0.0,1.0,-0.00239899917506,0.000245039642323,-0.009537152946,1.21846967915e-07,0.0,0.0,0.0,1.21846967915e-07,0.0,0.0,0.0,1.21846967915e-07,0.207945823669,0.0166334137321,9.81364536285,9e-08,0.0,0.0,0.0,9e-08,0.0,0.0,0.0,9e-08
1560461063718899443,4569,1560461063716158656,base_link,-0.00544202816237,0.0080955553844,-0.418982790424,-0.907941866991,1.0,0.0,0.0,0.0,1.0,0.0,0.0,0.0,1.0,-0.000149918167153,-0.000172222906258,-0.00849582720548,1.21846967915e-07,0.0,0.0,0.0,1.21846967915e-07,0.0,0.0,0.0,1.21846967915e-07,0.20810867846,0.0364558324218,9.79425621033,9e-08,0.0,0.0,0.0,9e-08,0.0,0.0,0.0,9e-08
1560461063741036037,4570,1560461063736158656,base_link,-0.00544487233378,0.00810243659828,-0.4189540252,-0.907954953587,1.0,0.0,0.0,0.0,1.0,0.0,0.0,0.0,1.0,-0.000710203952622,0.000775772437919,-0.0104047236964,1.21846967915e-07,0.0,0.0,0.0,1.21846967915e-07,0.0,0.0,0.0,1.21846967915e-07,0.188504248857,0.0651465579867,9.81701850891,9e-08,0.0,0.0,0.0,9e-08,0.0,0.0,0.0,9e-08
1560461063762756135,4571,1560461063760157376,base_link,-0.0054336509,0.00809139132516,-0.418920497382,-0.907970611141,1.0,0.0,0.0,0.0,1.0,0.0,0.0,0.0,1.0,-0.000594311684836,-0.000282735330984,-0.00954366195947,1.21846967915e-07,0.0,0.0,0.0,1.21846967915e-07,0.0,0.0,0.0,1.21846967915e-07,0.167095005512,0.0650038346648,9.81124305725,9e-08,0.0,0.0,0.0,9e-08,0.0,0.0,0.0,9e-08
1560461063781023212,4572,1560461063776157376,base_link,-0.00542658109544,0.00809719013882,-0.418898770682,-0.907980621018,1.0,0.0,0.0,0.0,1.0,0.0,0.0,0.0,1.0,-0.001222535735,-0.00122742773965,-0.00910129211843,1.21846967915e-07,0.0,0.0,0.0,1.21846967915e-07,0.0,0.0,0.0,1.21846967915e-07,0.187394976616,0.0280927047133,9.80355167389,9e-08,0.0,0.0,0.0,9e-08,0.0,0.0,0.0,9e-08
1560461063801925833,4573,1560461063800157376,base_link,-0.00542150750391,0.00809973491944,-0.418868340657,-0.907994782359,1.0,0.0,0.0,0.0,1.0,0.0,0.0,0.0,1.0,-0.00143613270484,-0.000284405541606,-0.00910343043506,1.21846967915e-07,0.0,0.0,0.0,1.21846967915e-07,0.0,0.0,0.0,1.21846967915e-07,0.182096347213,0.0365858003497,9.82762145996,9e-08,0.0,0.0,0.0,9e-08,0.0,0.0,0.0,9e-08
1560461063822668089,4574,1560461063820157376,base_link,-0.00543266374178,0.00810414930791,-0.41884811017,-0.908003970372,1.0,0.0,0.0,0.0,1.0,0.0,0.0,0.0,1.0,0.000578657025471,-0.000925231492147,-0.00986582785845,1.21846967915e-07,0.0,0.0,0.0,1.21846967915e-07,0.0,0.0,0.0,1.21846967915e-07,0.203909486532,0.06607465446,9.81717014313,9e-08,0.0,0.0,0.0,9e-08,0.0,0.0,0.0,9e-08
1560461063839818403,4575,1560461063836157376,base_link,-0.0054300972292,0.00809640959894,-0.418822421666,-0.908015919004,1.0,0.0,0.0,0.0,1.0,0.0,0.0,0.0,1.0,0.000345698092133,0.000662352133077,-0.0110327675939,1.21846967915e-07,0.0,0.0,0.0,1.21846967915e-07,0.0,0.0,0.0,1.21846967915e-07,0.180420547724,0.0512937679887,9.80658626556,9e-08,0.0,0.0,0.0,9e-08,0.0,0.0,0.0,9e-08
1560461063860874940,4576,1560461063856157376,base_link,-0.00542653293937,0.00809331995507,-0.418793572148,-0.908029174187,1.0,0.0,0.0,0.0,1.0,0.0,0.0,0.0,1.0,0.000273500801995,0.000141760800034,-0.00922799576074,1.21846967915e-07,0.0,0.0,0.0,1.21846967915e-07,0.0,0.0,0.0,1.21846967915e-07,0.215360462666,0.0122638046741,9.81153297424,9e-08,0.0,0.0,0.0,9e-08,0.0,0.0,0.0,9e-08
1560461063879961002,4577,1560461063876153792,base_link,-0.00543090847372,0.00810037938756,-0.418765797375,-0.908041860389,1.0,0.0,0.0,0.0,1.0,0.0,0.0,0.0,1.0,-6.46606349619e-05,-0.00028568203561,-0.010057663545,1.21846967915e-07,0.0,0.0,0.0,1.21846967915e-07,0.0,0.0,0.0,1.21846967915e-07,0.173124343157,0.0294511243701,9.82544136047,9e-08,0.0,0.0,0.0,9e-08,0.0,0.0,0.0,9e-08
1560461063903258080,4578,1560461063900153792,base_link,-0.0054254817377,0.00809825130098,-0.418722681149,-0.908061964436,1.0,0.0,0.0,0.0,1.0,0.0,0.0,0.0,1.0,-0.00221012462862,0.000448059756309,-0.011318734847,1.21846967915e-07,0.0,0.0,0.0,1.21846967915e-07,0.0,0.0,0.0,1.21846967915e-07,0.18686658144,0.0231580138206,9.8191652298,9e-08,0.0,0.0,0.0,9e-08,0.0,0.0,0.0,9e-08
1560461063919642221,4579,1560461063916153792,base_link,-0.00543377651737,0.00809629303656,-0.418700722641,-0.908072037532,1.0,0.0,0.0,0.0,1.0,0.0,0.0,0.0,1.0,0.00293179415166,-0.00123668625019,-0.00850151479244,1.21846967915e-07,0.0,0.0,0.0,1.21846967915e-07,0.0,0.0,0.0,1.21846967915e-07,0.202168986201,0.00619477778673,9.85126876831,9e-08,0.0,0.0,0.0,9e-08,0.0,0.0,0.0,9e-08
1560461063939941013,4580,1560461063936153792,base_link,-0.0054470124388,0.00810414502737,-0.418680555374,-0.908081162325,1.0,0.0,0.0,0.0,1.0,0.0,0.0,0.0,1.0,-0.000246742245508,0.00014844594989,-0.00771723594517,1.21846967915e-07,0.0,0.0,0.0,1.21846967915e-07,0.0,0.0,0.0,1.21846967915e-07,0.178432568908,0.0693390965462,9.82213878632,9e-08,0.0,0.0,0.0,9e-08,0.0,0.0,0.0,9e-08
1560461063962792673,4581,1560461063960151488,base_link,-0.00542574811895,0.00810616667669,-0.418653370656,-0.908093848526,1.0,0.0,0.0,0.0,1.0,0.0,0.0,0.0,1.0,-0.000893323333003,0.000357855402399,-0.00834499578923,1.21846967915e-07,0.0,0.0,0.0,1.21846967915e-07,0.0,0.0,0.0,1.21846967915e-07,0.172484725714,0.0188235715032,9.8017578125,9e-08,0.0,0.0,0.0,9e-08,0.0,0.0,0.0,9e-08
1560461063982104612,4582,1560461063976151488,base_link,-0.00541302866105,0.00810825854332,-0.418639082875,-0.908100381288,1.0,0.0,0.0,0.0,1.0,0.0,0.0,0.0,1.0,-0.000362800376024,0.000463443517219,-0.00845525879413,1.21846967915e-07,0.0,0.0,0.0,1.21846967915e-07,0.0,0.0,0.0,1.21846967915e-07,0.207516163588,0.016685821116,9.8536233902,9e-08,0.0,0.0,0.0,9e-08,0.0,0.0,0.0,9e-08
1560461064001987123,4583,1560461064000151488,base_link,-0.00543063657715,0.0081214217779,-0.418606629801,-0.908115132685,1.0,0.0,0.0,0.0,1.0,0.0,0.0,0.0,1.0,0.00197698222473,-0.00112214381807,-0.00858144555241,1.21846967915e-07,0.0,0.0,0.0,1.21846967915e-07,0.0,0.0,0.0,1.21846967915e-07,0.185282826424,0.057615056634,9.81804847717,9e-08,0.0,0.0,0.0,9e-08,0.0,0.0,0.0,9e-08
1560461064019791858,4584,1560461064016151488,base_link,-0.0054295872688,0.00812891165154,-0.41858772694,-0.908123836009,1.0,0.0,0.0,0.0,1.0,0.0,0.0,0.0,1.0,-0.00196144171059,0.000354144256562,-0.00842500943691,1.21846967915e-07,0.0,0.0,0.0,1.21846967915e-07,0.0,0.0,0.0,1.21846967915e-07,0.191427603364,0.0415067225695,9.78926753998,9e-08,0.0,0.0,0.0,9e-08,0.0,0.0,0.0,9e-08
1560461064040678427,4585,1560461064036151488,base_link,-0.0054274823136,0.00812039164965,-0.418559657139,-0.908136817239,1.0,0.0,0.0,0.0,1.0,0.0,0.0,0.0,1.0,-0.000148691528011,0.000463408534415,-0.00834409985691,1.21846967915e-07,0.0,0.0,0.0,1.21846967915e-07,0.0,0.0,0.0,1.21846967915e-07,0.197107613087,0.00205026566982,9.78116035461,9e-08,0.0,0.0,0.0,9e-08,0.0,0.0,0.0,9e-08
1560461064060033581,4586,1560461064056151488,base_link,-0.00544651828346,0.00812095133017,-0.418543198794,-0.908144340451,1.0,0.0,0.0,0.0,1.0,0.0,0.0,0.0,1.0,0.00114405818749,-0.000382497382816,-0.00718265771866,1.21846967915e-07,0.0,0.0,0.0,1.21846967915e-07,0.0,0.0,0.0,1.21846967915e-07,0.196146562696,0.048329539597,9.81489372253,9e-08,0.0,0.0,0.0,9e-08,0.0,0.0,0.0,9e-08
1560461064080667366,4587,1560461064076149440,base_link,-0.00543297696202,0.00812549429946,-0.418523389776,-0.908153528464,1.0,0.0,0.0,0.0,1.0,0.0,0.0,0.0,1.0,-0.0036644609645,0.00280287116766,-0.00861944071949,1.21846967915e-07,0.0,0.0,0.0,1.21846967915e-07,0.0,0.0,0.0,1.21846967915e-07,0.206893742085,0.0127445608377,9.83253765106,9e-08,0.0,0.0,0.0,9e-08,0.0,0.0,0.0,9e-08
1560461064100039334,4588,1560461064096149440,base_link,-0.00541942386909,0.00811696112668,-0.418495088167,-0.908166741501,1.0,0.0,0.0,0.0,1.0,0.0,0.0,0.0,1.0,0.00090710632503,0.00131125666667,-0.00898817181587,1.21846967915e-07,0.0,0.0,0.0,1.21846967915e-07,0.0,0.0,0.0,1.21846967915e-07,0.184940457344,-0.0253347605467,9.82795238495,9e-08,0.0,0.0,0.0,9e-08,0.0,0.0,0.0,9e-08
1560461064120865313,4589,1560461064116149440,base_link,-0.00544040781361,0.00812690506643,-0.418469947572,-0.90817805793,1.0,0.0,0.0,0.0,1.0,0.0,0.0,0.0,1.0,0.0010123209795,-0.00273474026471,-0.00907912943512,1.21846967915e-07,0.0,0.0,0.0,1.21846967915e-07,0.0,0.0,0.0,1.21846967915e-07,0.205143362284,0.0460244268179,9.83815670013,9e-08,0.0,0.0,0.0,9e-08,0.0,0.0,0.0,9e-08
1560461064140505550,4590,1560461064136149440,base_link,-0.00544129775419,0.00813445371517,-0.418441667036,-0.908190912719,1.0,0.0,0.0,0.0,1.0,0.0,0.0,0.0,1.0,-0.000710233231075,0.000558962929063,-0.0112054683268,1.21846967915e-07,0.0,0.0,0.0,1.21846967915e-07,0.0,0.0,0.0,1.21846967915e-07,0.192898780107,0.0334172993898,9.84960174561,9e-08,0.0,0.0,0.0,9e-08,0.0,0.0,0.0,9e-08
1560461064159753606,4591,1560461064156149440,base_link,-0.00543567814695,0.00813399232242,-0.4184130704,-0.908204167902,1.0,0.0,0.0,0.0,1.0,0.0,0.0,0.0,1.0,-0.0010125071276,0.000883489032276,-0.00927270948887,1.21846967915e-07,0.0,0.0,0.0,1.21846967915e-07,0.0,0.0,0.0,1.21846967915e-07,0.20575299859,0.0230530425906,9.80887794495,9e-08,0.0,0.0,0.0,9e-08,0.0,0.0,0.0,9e-08
1560461064180586617,4592,1560461064176147392,base_link,-0.00543861237432,0.00813385032376,-0.418388203759,-0.908215631845,1.0,0.0,0.0,0.0,1.0,0.0,0.0,0.0,1.0,0.000268843519734,-0.000924266059883,-0.00895754527301,1.21846967915e-07,0.0,0.0,0.0,1.21846967915e-07,0.0,0.0,0.0,1.21846967915e-07,0.17979735136,0.0179045125842,9.82677268982,9e-08,0.0,0.0,0.0,9e-08,0.0,0.0,0.0,9e-08
1560461064200266265,4593,1560461064196147392,base_link,-0.00544227248238,0.00814183328261,-0.418363568926,-0.908226948274,1.0,0.0,0.0,0.0,1.0,0.0,0.0,0.0,1.0,-0.000361843092833,-0.00112848542631,-0.00871791318059,1.21846967915e-07,0.0,0.0,0.0,1.21846967915e-07,0.0,0.0,0.0,1.21846967915e-07,0.221021205187,0.0375195741653,9.85727119446,9e-08,0.0,0.0,0.0,9e-08,0.0,0.0,0.0,9e-08
1560461064219595489,4594,1560461064216147392,base_link,-0.00543696658928,0.00815060180273,-0.418343865274,-0.908235862333,1.0,0.0,0.0,0.0,1.0,0.0,0.0,0.0,1.0,-0.00268924469128,0.000671891262755,-0.00795218069106,1.21846967915e-07,0.0,0.0,0.0,1.21846967915e-07,0.0,0.0,0.0,1.21846967915e-07,0.218078032136,0.0247705504298,9.81163597107,9e-08,0.0,0.0,0.0,9e-08,0.0,0.0,0.0,9e-08
1560461064239779385,4595,1560461064236147392,base_link,-0.00543167065667,0.00815185427207,-0.418323129025,-0.908245556108,1.0,0.0,0.0,0.0,1.0,0.0,0.0,0.0,1.0,0.000913946016226,0.000141724362038,-0.00863480288535,1.21846967915e-07,0.0,0.0,0.0,1.21846967915e-07,0.0,0.0,0.0,1.21846967915e-07,0.162466078997,0.0116610527039,9.79912376404,9e-08,0.0,0.0,0.0,9e-08,0.0,0.0,0.0,9e-08
1560461064259210189,4596,1560461064256147392,base_link,-0.00544561434881,0.00816373474426,-0.418304036502,-0.908254027624,1.0,0.0,0.0,0.0,1.0,0.0,0.0,0.0,1.0,-0.000687870080583,-0.00103101856075,-0.00828889012337,1.21846967915e-07,0.0,0.0,0.0,1.21846967915e-07,0.0,0.0,0.0,1.21846967915e-07,0.19577768445,0.0636113584042,9.81507301331,9e-08,0.0,0.0,0.0,9e-08,0.0,0.0,0.0,9e-08
1560461064279962288,4597,1560461064276147136,base_link,-0.00543587093586,0.00815945774464,-0.418272995349,-0.90826846292,1.0,0.0,0.0,0.0,1.0,0.0,0.0,0.0,1.0,-0.00284575694241,0.00236380845308,-0.011143065989,1.21846967915e-07,0.0,0.0,0.0,1.21846967915e-07,0.0,0.0,0.0,1.21846967915e-07,0.195850938559,0.0372375175357,9.78605556488,9e-08,0.0,0.0,0.0,9e-08,0.0,0.0,0.0,9e-08
1560461064300306645,4598,1560461064296147136,base_link,-0.00541945589081,0.00814976808538,-0.418249582774,-0.908279484321,1.0,0.0,0.0,0.0,1.0,0.0,0.0,0.0,1.0,0.000921743281651,-0.000919509446248,-0.00787832960486,1.21846967915e-07,0.0,0.0,0.0,1.21846967915e-07,0.0,0.0,0.0,1.21846967915e-07,0.185239076614,0.0181565955281,9.84372329712,9e-08,0.0,0.0,0.0,9e-08,0.0,0.0,0.0,9e-08
1560461064320310862,4599,1560461064316147136,base_link,-0.00544502635088,0.00816103133674,-0.418232260419,-0.908287197194,1.0,0.0,0.0,0.0,1.0,0.0,0.0,0.0,1.0,0.00124989531469,-0.00229882774875,-0.00733986310661,1.21846967915e-07,0.0,0.0,0.0,1.21846967915e-07,0.0,0.0,0.0,1.21846967915e-07,0.212038934231,0.0662807449698,9.81568622589,9e-08,0.0,0.0,0.0,9e-08,0.0,0.0,0.0,9e-08
1560461064339242759,4600,1560461064336147136,base_link,-0.00543365320491,0.00816473375628,-0.418207604513,-0.908298534696,1.0,0.0,0.0,0.0,1.0,0.0,0.0,0.0,1.0,-0.00315875397064,0.00267791841179,-0.010813803412,1.21846967915e-07,0.0,0.0,0.0,1.21846967915e-07,0.0,0.0,0.0,1.21846967915e-07,0.214873492718,0.0291108861566,9.77066898346,9e-08,0.0,0.0,0.0,9e-08,0.0,0.0,0.0,9e-08
1560461064359902143,4601,1560461064356147136,base_link,-0.00540704224452,0.00816087517937,-0.418183854764,-0.908309724685,1.0,0.0,0.0,0.0,1.0,0.0,0.0,0.0,1.0,-0.000570813950617,0.000249698583502,-0.00806510820985,1.21846967915e-07,0.0,0.0,0.0,1.21846967915e-07,0.0,0.0,0.0,1.21846967915e-07,0.168625354767,0.0123977437615,9.77324199677,9e-08,0.0,0.0,0.0,9e-08,0.0,0.0,0.0,9e-08
1560461064380130573,4602,1560461064376144320,base_link,-0.00542894345922,0.00816559891913,-0.418169208734,-0.908316278519,1.0,0.0,0.0,0.0,1.0,0.0,0.0,0.0,1.0,0.00336886243895,-0.00124108185992,-0.00822078250349,1.21846967915e-07,0.0,0.0,0.0,1.21846967915e-07,0.0,0.0,0.0,1.21846967915e-07,0.17570027709,0.0507328435779,9.80825901031,9e-08,0.0,0.0,0.0,9e-08,0.0,0.0,0.0,9e-08
1560461064402823862,4603,1560461064400144320,base_link,-0.00541758455428,0.0081667503842,-0.418141096786,-0.908329217602,1.0,0.0,0.0,0.0,1.0,0.0,0.0,0.0,1.0,-0.00399101153016,0.00226446590386,-0.00940519105643,1.21846967915e-07,0.0,0.0,0.0,1.21846967915e-07,0.0,0.0,0.0,1.21846967915e-07,0.202022686601,0.0603645145893,9.77486991882,9e-08,0.0,0.0,0.0,9e-08,0.0,0.0,0.0,9e-08
1560461064419057841,4604,1560461064416144320,base_link,-0.00539785250287,0.00815562040579,-0.418121603869,-0.908338426688,1.0,0.0,0.0,0.0,1.0,0.0,0.0,0.0,1.0,-0.00133570050821,0.000244531198405,-0.00921254605055,1.21846967915e-07,0.0,0.0,0.0,1.21846967915e-07,0.0,0.0,0.0,1.21846967915e-07,0.164207577705,-0.00880240276456,9.79927444458,9e-08,0.0,0.0,0.0,9e-08,0.0,0.0,0.0,9e-08
1560461064441152033,4605,1560461064436144320,base_link,-0.00542810496743,0.00817041106849,-0.418103522871,-0.908346392443,1.0,0.0,0.0,0.0,1.0,0.0,0.0,0.0,1.0,0.00143636856228,-0.00284082279541,-0.00880517996848,1.21846967915e-07,0.0,0.0,0.0,1.21846967915e-07,0.0,0.0,0.0,1.21846967915e-07,0.172140866518,0.0586466342211,9.81618309021,9e-08,0.0,0.0,0.0,9e-08,0.0,0.0,0.0,9e-08
1560461064459021858,4606,1560461064456144320,base_link,-0.00542590938004,0.00816761093724,-0.418080004929,-0.90835726633,1.0,0.0,0.0,0.0,1.0,0.0,0.0,0.0,1.0,-0.00177144131158,0.00151551282033,-0.0101699884981,1.21846967915e-07,0.0,0.0,0.0,1.21846967915e-07,0.0,0.0,0.0,1.21846967915e-07,0.218136489391,0.0533010214567,9.79430103302,9e-08,0.0,0.0,0.0,9e-08,0.0,0.0,0.0,9e-08
1560461064480528909,4607,1560461064477142272,base_link,-0.0053911030802,0.00814478142173,-0.418048036545,-0.908372375975,1.0,0.0,0.0,0.0,1.0,0.0,0.0,0.0,1.0,-0.00086247024592,0.00182451121509,-0.00960983708501,1.21846967915e-07,0.0,0.0,0.0,1.21846967915e-07,0.0,0.0,0.0,1.21846967915e-07,0.172518581152,-0.013361081481,9.79662227631,9e-08,0.0,0.0,0.0,9e-08,0.0,0.0,0.0,9e-08
1560461064501916961,4608,1560461064498142272,base_link,-0.00540353426024,0.00815277302397,-0.418024645044,-0.908383123421,1.0,0.0,0.0,0.0,1.0,0.0,0.0,0.0,1.0,0.000592901546042,-0.0013504778035,-0.00858276709914,1.21846967915e-07,0.0,0.0,0.0,1.21846967915e-07,0.0,0.0,0.0,1.21846967915e-07,0.198588252068,0.0547579675913,9.78635597229,9e-08,0.0,0.0,0.0,9e-08,0.0,0.0,0.0,9e-08
1560461064520558657,4609,1560461064518142272,base_link,-0.00540097359224,0.00814520132618,-0.417996659536,-0.908396020357,1.0,0.0,0.0,0.0,1.0,0.0,0.0,0.0,1.0,-0.000824035145342,0.00162974791601,-0.0104925045744,1.21846967915e-07,0.0,0.0,0.0,1.21846967915e-07,0.0,0.0,0.0,1.21846967915e-07,0.2142945081,0.062994427979,9.8246011734,9e-08,0.0,0.0,0.0,9e-08,0.0,0.0,0.0,9e-08
1560461064540501012,4610,1560461064538142272,base_link,-0.00539380731091,0.00813817070501,-0.41797046527,-0.908408221869,1.0,0.0,0.0,0.0,1.0,0.0,0.0,0.0,1.0,-0.0016460949555,0.000349367503077,-0.00919381622225,1.21846967915e-07,0.0,0.0,0.0,1.21846967915e-07,0.0,0.0,0.0,1.21846967915e-07,0.186169058084,0.00827910006046,9.82053947449,9e-08,0.0,0.0,0.0,9e-08,0.0,0.0,0.0,9e-08
1560461064560780053,4611,1560461064558142272,base_link,-0.00540908768376,0.00814323540618,-0.417950782692,-0.908417114855,1.0,0.0,0.0,0.0,1.0,0.0,0.0,0.0,1.0,0.000271966622677,-0.0012389915064,-0.00857135467231,1.21846967915e-07,0.0,0.0,0.0,1.21846967915e-07,0.0,0.0,0.0,1.21846967915e-07,0.189323350787,0.0383999124169,9.80059528351,9e-08,0.0,0.0,0.0,9e-08,0.0,0.0,0.0,9e-08
1560461064580788129,4612,1560461064578139968,base_link,-0.00541225273099,0.00814592745381,-0.417921574926,-0.908430559699,1.0,0.0,0.0,0.0,1.0,0.0,0.0,0.0,1.0,-0.000696820905432,0.000566284754314,-0.00951930414885,1.21846967915e-07,0.0,0.0,0.0,1.21846967915e-07,0.0,0.0,0.0,1.21846967915e-07,0.176590174437,0.0395988449454,9.81687164307,9e-08,0.0,0.0,0.0,9e-08,0.0,0.0,0.0,9e-08
1560461064600794752,4613,1560461064598139968,base_link,-0.00540852783861,0.00814985912916,-0.417898099131,-0.908441307146,1.0,0.0,0.0,0.0,1.0,0.0,0.0,0.0,1.0,-0.0004856363812,-0.000397207739297,-0.00983487162739,1.21846967915e-07,0.0,0.0,0.0,1.21846967915e-07,0.0,0.0,0.0,1.21846967915e-07,0.221752151847,-0.00800381600857,9.80572032928,9e-08,0.0,0.0,0.0,9e-08,0.0,0.0,0.0,9e-08
1560461064620759664,4614,1560461064618139968,base_link,-0.00541544930603,0.00816012962467,-0.417877088927,-0.908450769113,1.0,0.0,0.0,0.0,1.0,0.0,0.0,0.0,1.0,-0.000591357587837,-0.000929433153942,-0.0092919357121,1.21846967915e-07,0.0,0.0,0.0,1.21846967915e-07,0.0,0.0,0.0,1.21846967915e-07,0.183894142509,0.0344851389527,9.81938552856,9e-08,0.0,0.0,0.0,9e-08,0.0,0.0,0.0,9e-08
1560461064641166208,4615,1560461064638139968,base_link,-0.00542386237675,0.00815999972677,-0.417838946029,-0.908468344349,1.0,0.0,0.0,0.0,1.0,0.0,0.0,0.0,1.0,0.00121194578242,-0.000190317630768,-0.0104907304049,1.21846967915e-07,0.0,0.0,0.0,1.21846967915e-07,0.0,0.0,0.0,1.21846967915e-07,0.222174972296,0.0506383255124,9.81937217712,9e-08,0.0,0.0,0.0,9e-08,0.0,0.0,0.0,9e-08
1560461064660597629,4616,1560461064658139968,base_link,-0.00542238740169,0.00816224388182,-0.417814838032,-0.908479471117,1.0,0.0,0.0,0.0,1.0,0.0,0.0,0.0,1.0,0.000566004717257,0.000657221535221,-0.0101415636018,1.21846967915e-07,0.0,0.0,0.0,1.21846967915e-07,0.0,0.0,0.0,1.21846967915e-07,0.202156424522,0.0206567719579,9.82436847687,9e-08,0.0,0.0,0.0,9e-08,0.0,0.0,0.0,9e-08
1560461064681055940,4617,1560461064678137920,base_link,-0.00541306726822,0.00816011719465,-0.417787021112,-0.908492368053,1.0,0.0,0.0,0.0,1.0,0.0,0.0,0.0,1.0,-5.77866885578e-05,0.00162826292217,-0.00949850771576,1.21846967915e-07,0.0,0.0,0.0,1.21846967915e-07,0.0,0.0,0.0,1.21846967915e-07,0.187435120344,0.0447262451053,9.86779975891,9e-08,0.0,0.0,0.0,9e-08,0.0,0.0,0.0,9e-08
1560461064701177618,4618,1560461064698137920,base_link,-0.00541583661252,0.00816432578796,-0.417758972384,-0.908505159621,1.0,0.0,0.0,0.0,1.0,0.0,0.0,0.0,1.0,0.000354038522346,-0.00125391699839,-0.0105511154979,1.21846967915e-07,0.0,0.0,0.0,1.21846967915e-07,0.0,0.0,0.0,1.21846967915e-07,0.165917932987,0.0378631949425,9.82697296143,9e-08,0.0,0.0,0.0,9e-08,0.0,0.0,0.0,9e-08
1560461064721531983,4619,1560461064718137920,base_link,-0.00541426244419,0.0081711748978,-0.417741797543,-0.908512977861,1.0,0.0,0.0,0.0,1.0,0.0,0.0,0.0,1.0,-0.000897574878763,0.000891019240953,-0.00862455833703,1.21846967915e-07,0.0,0.0,0.0,1.21846967915e-07,0.0,0.0,0.0,1.21846967915e-07,0.184135317802,0.0125372260809,9.83139419556,9e-08,0.0,0.0,0.0,9e-08,0.0,0.0,0.0,9e-08
1560461064740694437,4620,1560461064738137920,base_link,-0.00540984286968,0.0081722622371,-0.417733262807,-0.908516876445,1.0,0.0,0.0,0.0,1.0,0.0,0.0,0.0,1.0,-0.0015200052876,0.00217012455687,-0.00723500642926,1.21846967915e-07,0.0,0.0,0.0,1.21846967915e-07,0.0,0.0,0.0,1.21846967915e-07,0.175720632076,0.0522248372436,9.84643173218,9e-08,0.0,0.0,0.0,9e-08,0.0,0.0,0.0,9e-08
1560461064761641170,4621,1560461064758137920,base_link,-0.00541053071942,0.00817434554265,-0.417709681645,-0.908527729258,1.0,0.0,0.0,0.0,1.0,0.0,0.0,0.0,1.0,0.00015562295448,0.00035094487248,-0.0093780644238,1.21846967915e-07,0.0,0.0,0.0,1.21846967915e-07,0.0,0.0,0.0,1.21846967915e-07,0.204143673182,0.041381046176,9.86398696899,9e-08,0.0,0.0,0.0,9e-08,0.0,0.0,0.0,9e-08
1560461064780956892,4622,1560461064778135360,base_link,-0.0054054991101,0.0081793007608,-0.417685700088,-0.908538729586,1.0,0.0,0.0,0.0,1.0,0.0,0.0,0.0,1.0,-0.00102190079633,0.000451446278021,-0.0099973063916,1.21846967915e-07,0.0,0.0,0.0,1.21846967915e-07,0.0,0.0,0.0,1.21846967915e-07,0.188085049391,0.03263566643,9.83693313599,9e-08,0.0,0.0,0.0,9e-08,0.0,0.0,0.0,9e-08
1560461064801064137,4623,1560461064798135360,base_link,-0.00539476483462,0.00817182891481,-0.417664689884,-0.908548444434,1.0,0.0,0.0,0.0,1.0,0.0,0.0,0.0,1.0,-0.0026032384485,0.000566385861021,-0.00880375597626,1.21846967915e-07,0.0,0.0,0.0,1.21846967915e-07,0.0,0.0,0.0,1.21846967915e-07,0.186931967735,0.00157088786364,9.81974601746,9e-08,0.0,0.0,0.0,9e-08,0.0,0.0,0.0,9e-08
1560461064820723103,4624,1560461064818135360,base_link,-0.00540026812644,0.00817616296085,-0.417645133746,-0.90855746386,1.0,0.0,0.0,0.0,1.0,0.0,0.0,0.0,1.0,0.00144897948485,-0.00166997686028,-0.0084170633927,1.21846967915e-07,0.0,0.0,0.0,1.21846967915e-07,0.0,0.0,0.0,1.21846967915e-07,0.192651003599,0.0282432585955,9.81698703766,9e-08,0.0,0.0,0.0,9e-08,0.0,0.0,0.0,9e-08
1560461064840735113,4625,1560461064835135360,base_link,-0.00541429018538,0.00817528808448,-0.417627537437,-0.908565450688,1.0,0.0,0.0,0.0,1.0,0.0,0.0,0.0,1.0,0.00101164658554,0.000314689299557,-0.00893680751324,1.21846967915e-07,0.0,0.0,0.0,1.21846967915e-07,0.0,0.0,0.0,1.21846967915e-07,0.197325780988,0.0433340072632,9.80813312531,9e-08,0.0,0.0,0.0,9e-08,0.0,0.0,0.0,9e-08
1560461064862456403,4626,1560461064860132800,base_link,-0.00539569107747,0.0081747235472,-0.417602776164,-0.908576977851,1.0,0.0,0.0,0.0,1.0,0.0,0.0,0.0,1.0,-0.00282414886169,0.000665319617838,-0.0094315558672,1.21846967915e-07,0.0,0.0,0.0,1.21846967915e-07,0.0,0.0,0.0,1.21846967915e-07,0.186088323593,0.0165296643972,9.85545253754,9e-08,0.0,0.0,0.0,9e-08,0.0,0.0,0.0,9e-08
1560461064882295395,4627,1560461064880132800,base_link,-0.0053972388217,0.00817140695242,-0.417582145281,-0.908586481965,1.0,0.0,0.0,0.0,1.0,0.0,0.0,0.0,1.0,0.000811150472146,-0.00156354322098,-0.00797460414469,1.21846967915e-07,0.0,0.0,0.0,1.21846967915e-07,0.0,0.0,0.0,1.21846967915e-07,0.221540600061,0.052854552865,9.7973575592,9e-08,0.0,0.0,0.0,9e-08,0.0,0.0,0.0,9e-08
1560461064899763948,4628,1560461064896132800,base_link,-0.00540455772073,0.0081810179156,-0.417566066258,-0.90859371015,1.0,0.0,0.0,0.0,1.0,0.0,0.0,0.0,1.0,-0.00123193429317,-0.00114559358917,-0.00975458137691,1.21846967915e-07,0.0,0.0,0.0,1.21846967915e-07,0.0,0.0,0.0,1.21846967915e-07,0.215701326728,0.0677041113377,9.82109546661,9e-08,0.0,0.0,0.0,9e-08,0.0,0.0,0.0,9e-08
1560461064918785883,4629,1560461064916132800,base_link,-0.00538870013361,0.00817906187378,-0.41754084137,-0.908605363753,1.0,0.0,0.0,0.0,1.0,0.0,0.0,0.0,1.0,-0.00186962541193,0.00183553202078,-0.00943706464022,1.21846967915e-07,0.0,0.0,0.0,1.21846967915e-07,0.0,0.0,0.0,1.21846967915e-07,0.16564822197,0.027752622962,9.81672382355,9e-08,0.0,0.0,0.0,9e-08,0.0,0.0,0.0,9e-08
1560461064939510768,4630,1560461064936132800,base_link,-0.00539991547585,0.00817730454776,-0.417520695176,-0.90861463606,1.0,0.0,0.0,0.0,1.0,0.0,0.0,0.0,1.0,0.00176080246456,-0.00253429240547,-0.00903432257473,1.21846967915e-07,0.0,0.0,0.0,1.21846967915e-07,0.0,0.0,0.0,1.21846967915e-07,0.178780287504,-0.0106180123985,9.82116985321,9e-08,0.0,0.0,0.0,9e-08,0.0,0.0,0.0,9e-08
