%time,field.header.seq,field.header.stamp,field.header.frame_id,field.orientation.x,field.orientation.y,field.orientation.z,field.orientation.w,field.orientation_covariance0,field.orientation_covariance1,field.orientation_covariance2,field.orientation_covariance3,field.orientation_covariance4,field.orientation_covariance5,field.orientation_covariance6,field.orientation_covariance7,field.orientation_covariance8,field.angular_velocity.x,field.angular_velocity.y,field.angular_velocity.z,field.angular_velocity_covariance0,field.angular_velocity_covariance1,field.angular_velocity_covariance2,field.angular_velocity_covariance3,field.angular_velocity_covariance4,field.angular_velocity_covariance5,field.angular_velocity_covariance6,field.angular_velocity_covariance7,field.angular_velocity_covariance8,field.linear_acceleration.x,field.linear_acceleration.y,field.linear_acceleration.z,field.linear_acceleration_covariance0,field.linear_acceleration_covariance1,field.linear_acceleration_covariance2,field.linear_acceleration_covariance3,field.linear_acceleration_covariance4,field.linear_acceleration_covariance5,field.linear_acceleration_covariance6,field.linear_acceleration_covariance7,field.linear_acceleration_covariance8
1560461786895223941,40724,1560461786819064768,base_link,-0.00819894003975,-0.00334613807277,-0.670105543946,-0.742213096118,1.0,0.0,0.0,0.0,1.0,0.0,0.0,0.0,1.0,-0.00125409057364,-2.86055728793e-05,0.00501675577834,1.21846967915e-07,0.0,0.0,0.0,1.21846967915e-07,0.0,0.0,0.0,1.21846967915e-07,0.0325987115502,0.189623147249,9.82985687256,9e-08,0.0,0.0,0.0,9e-08,0.0,0.0,0.0,9e-08
1560461786895360183,40725,1560461786839064768,base_link,-0.0081976245971,-0.00334051772467,-0.670129915361,-0.742191084927,1.0,0.0,0.0,0.0,1.0,0.0,0.0,0.0,1.0,-0.00126311450731,-0.000451537489425,0.00448604626581,1.21846967915e-07,0.0,0.0,0.0,1.21846967915e-07,0.0,0.0,0.0,1.21846967915e-07,0.043181873858,0.157869592309,9.84453487396,9e-08,0.0,0.0,0.0,9e-08,0.0,0.0,0.0,9e-08
1560461786895417951,40726,1560461786859064768,base_link,-0.0081947312818,-0.00334356645647,-0.670152766855,-0.742170425068,1.0,0.0,0.0,0.0,1.0,0.0,0.0,0.0,1.0,0.00107355159707,0.000717826536857,0.00413020793349,1.21846967915e-07,0.0,0.0,0.0,1.21846967915e-07,0.0,0.0,0.0,1.21846967915e-07,0.00994280725718,0.170414745808,9.78171443939,9e-08,0.0,0.0,0.0,9e-08,0.0,0.0,0.0,9e-08
1560461786895441084,40727,1560461786879060160,base_link,-0.00819014912911,-0.00334114564686,-0.670172009526,-0.742153121153,1.0,0.0,0.0,0.0,1.0,0.0,0.0,0.0,1.0,-0.000413457280956,0.000292411190458,0.00436282902956,1.21846967915e-07,0.0,0.0,0.0,1.21846967915e-07,0.0,0.0,0.0,1.21846967915e-07,0.0635083094239,0.182375505567,9.79599952698,9e-08,0.0,0.0,0.0,9e-08,0.0,0.0,0.0,9e-08
1560461786902511565,40728,1560461786899060160,base_link,-0.00819327622771,-0.00333818581857,-0.670195664445,-0.742131742164,1.0,0.0,0.0,0.0,1.0,0.0,0.0,0.0,1.0,0.000116979645099,0.000609061215073,0.00414003198966,1.21846967915e-07,0.0,0.0,0.0,1.21846967915e-07,0.0,0.0,0.0,1.21846967915e-07,0.0647960603237,0.184210196137,9.78424358368,9e-08,0.0,0.0,0.0,9e-08,0.0,0.0,0.0,9e-08
1560461786922456322,40729,1560461786919060160,base_link,-0.00818434158973,-0.00332812539875,-0.670215270632,-0.742114243319,1.0,0.0,0.0,0.0,1.0,0.0,0.0,0.0,1.0,-0.00161089340691,0.000175257911906,0.00267603294924,1.21846967915e-07,0.0,0.0,0.0,1.21846967915e-07,0.0,0.0,0.0,1.21846967915e-07,0.0356320142746,0.174068361521,9.74070072174,9e-08,0.0,0.0,0.0,9e-08,0.0,0.0,0.0,9e-08
1560461786942447262,40730,1560461786939060160,base_link,-0.00818715209306,-0.00332745121381,-0.670241190944,-0.742090767525,1.0,0.0,0.0,0.0,1.0,0.0,0.0,0.0,1.0,0.00109546305612,-0.000127036357298,0.00572698144242,1.21846967915e-07,0.0,0.0,0.0,1.21846967915e-07,0.0,0.0,0.0,1.21846967915e-07,0.072892062366,0.161921352148,9.7829580307,9e-08,0.0,0.0,0.0,9e-08,0.0,0.0,0.0,9e-08
1560461786963234713,40731,1560461786959056832,base_link,-0.00818971778246,-0.00332714433207,-0.670270509345,-0.742064315109,1.0,0.0,0.0,0.0,1.0,0.0,0.0,0.0,1.0,-0.00157854554709,-0.000557665596716,0.00480624288321,1.21846967915e-07,0.0,0.0,0.0,1.21846967915e-07,0.0,0.0,0.0,1.21846967915e-07,0.0799533873796,0.149592161179,9.81884479523,9e-08,0.0,0.0,0.0,9e-08,0.0,0.0,0.0,9e-08
1560461786982811593,40732,1560461786979056832,base_link,-0.00817757734982,-0.00332389984792,-0.670294646318,-0.742042538359,1.0,0.0,0.0,0.0,1.0,0.0,0.0,0.0,1.0,-0.000943114806432,0.00103319855407,0.00456673745066,1.21846967915e-07,0.0,0.0,0.0,1.21846967915e-07,0.0,0.0,0.0,1.21846967915e-07,0.0494942441583,0.178038030863,9.78802585602,9e-08,0.0,0.0,0.0,9e-08,0.0,0.0,0.0,9e-08
1560461787002985516,40733,1560461786999056832,base_link,-0.00817466016229,-0.00332099023365,-0.670322107624,-0.742017858745,1.0,0.0,0.0,0.0,1.0,0.0,0.0,0.0,1.0,-0.0021200645715,0.00114877044689,0.00521356472746,1.21846967915e-07,0.0,0.0,0.0,1.21846967915e-07,0.0,0.0,0.0,1.21846967915e-07,0.0444587618113,0.166642278433,9.81985092163,9e-08,0.0,0.0,0.0,9e-08,0.0,0.0,0.0,9e-08
1560461787023766827,40734,1560461787019056832,base_link,-0.00816885970226,-0.00332094150135,-0.670343602517,-0.741998555488,1.0,0.0,0.0,0.0,1.0,0.0,0.0,0.0,1.0,-0.000525346433278,0.00178130669519,0.00489869620651,1.21846967915e-07,0.0,0.0,0.0,1.21846967915e-07,0.0,0.0,0.0,1.21846967915e-07,0.0780115276575,0.166595503688,9.82516384125,9e-08,0.0,0.0,0.0,9e-08,0.0,0.0,0.0,9e-08
1560461787042204375,40735,1560461787039056832,base_link,-0.00817047840466,-0.00332121677296,-0.670367375974,-0.741976973668,1.0,0.0,0.0,0.0,1.0,0.0,0.0,0.0,1.0,0.000333903823048,0.000611733295955,0.00466168019921,1.21846967915e-07,0.0,0.0,0.0,1.21846967915e-07,0.0,0.0,0.0,1.21846967915e-07,0.0847926810384,0.163406014442,9.82113742828,9e-08,0.0,0.0,0.0,9e-08,0.0,0.0,0.0,9e-08
1560461787062790484,40736,1560461787059054528,base_link,-0.00817073836511,-0.00331718730375,-0.670387551143,-0.741958737253,1.0,0.0,0.0,0.0,1.0,0.0,0.0,0.0,1.0,0.000877045909874,-2.93302582577e-05,0.00562784634531,1.21846967915e-07,0.0,0.0,0.0,1.21846967915e-07,0.0,0.0,0.0,1.21846967915e-07,0.056147955358,0.186229258776,9.79188537598,9e-08,0.0,0.0,0.0,9e-08,0.0,0.0,0.0,9e-08
1560461787083115002,40737,1560461787079054528,base_link,-0.00816697494788,-0.0033146642551,-0.670417298916,-0.74193193976,1.0,0.0,0.0,0.0,1.0,0.0,0.0,0.0,1.0,-0.0007104150136,-0.000552594894543,0.00595663441345,1.21846967915e-07,0.0,0.0,0.0,1.21846967915e-07,0.0,0.0,0.0,1.21846967915e-07,0.0661628097296,0.190541863441,9.81854820251,9e-08,0.0,0.0,0.0,9e-08,0.0,0.0,0.0,9e-08
1560461787102469317,40738,1560461787099054528,base_link,-0.00816870461503,-0.00331166623123,-0.670442436877,-0.741909246316,1.0,0.0,0.0,0.0,1.0,0.0,0.0,0.0,1.0,0.00098275532946,0.000721299787983,0.00528383348137,1.21846967915e-07,0.0,0.0,0.0,1.21846967915e-07,0.0,0.0,0.0,1.21846967915e-07,0.062792763114,0.168173149228,9.81452560425,9e-08,0.0,0.0,0.0,9e-08,0.0,0.0,0.0,9e-08
1560461787124371159,40739,1560461787119054528,base_link,-0.00816792242879,-0.00331240231935,-0.67046758274,-0.74188654497,1.0,0.0,0.0,0.0,1.0,0.0,0.0,0.0,1.0,0.00151526345871,0.000191645696759,0.00538923870772,1.21846967915e-07,0.0,0.0,0.0,1.21846967915e-07,0.0,0.0,0.0,1.21846967915e-07,0.0702779963613,0.164270296693,9.80257797241,9e-08,0.0,0.0,0.0,9e-08,0.0,0.0,0.0,9e-08
1560461787143725246,40740,1560461787139054528,base_link,-0.00815385855228,-0.00331775365203,-0.670494482966,-0.741862257849,1.0,0.0,0.0,0.0,1.0,0.0,0.0,0.0,1.0,-0.000923937885091,0.0020017628558,0.00604989659041,1.21846967915e-07,0.0,0.0,0.0,1.21846967915e-07,0.0,0.0,0.0,1.21846967915e-07,0.0703252404928,0.158014446497,9.77242851257,9e-08,0.0,0.0,0.0,9e-08,0.0,0.0,0.0,9e-08
1560461787162768429,40741,1560461787159051712,base_link,-0.00815977820886,-0.00331859724754,-0.670515242923,-0.741843436647,1.0,0.0,0.0,0.0,1.0,0.0,0.0,0.0,1.0,0.00213954038918,-0.0031148889102,0.00432725949213,1.21846967915e-07,0.0,0.0,0.0,1.21846967915e-07,0.0,0.0,0.0,1.21846967915e-07,0.0607283338904,0.119439147413,9.84704399109,9e-08,0.0,0.0,0.0,9e-08,0.0,0.0,0.0,9e-08
1560461787182292854,40742,1560461787179051712,base_link,-0.00815616296415,-0.00332281571902,-0.670541294944,-0.741819913437,1.0,0.0,0.0,0.0,1.0,0.0,0.0,0.0,1.0,-0.00115857867058,0.00199979660101,0.00477674882859,1.21846967915e-07,0.0,0.0,0.0,1.21846967915e-07,0.0,0.0,0.0,1.21846967915e-07,0.0237086564302,0.19452098012,9.73609256744,9e-08,0.0,0.0,0.0,9e-08,0.0,0.0,0.0,9e-08
1560461787203323947,40743,1560461787199051712,base_link,-0.00816580619601,-0.00330838091732,-0.670558822765,-0.74180407149,1.0,0.0,0.0,0.0,1.0,0.0,0.0,0.0,1.0,-0.000315189565299,-0.000989331398159,0.00382234482095,1.21846967915e-07,0.0,0.0,0.0,1.21846967915e-07,0.0,0.0,0.0,1.21846967915e-07,0.100136272609,0.128317862749,9.82705211639,9e-08,0.0,0.0,0.0,9e-08,0.0,0.0,0.0,9e-08
1560461787222344854,40744,1560461787219051712,base_link,-0.00815003553677,-0.00330929481246,-0.670589458255,-0.741776554866,1.0,0.0,0.0,0.0,1.0,0.0,0.0,0.0,1.0,0.000673280272167,0.000722808414139,0.00582188926637,1.21846967915e-07,0.0,0.0,0.0,1.21846967915e-07,0.0,0.0,0.0,1.21846967915e-07,0.0711338371038,0.20434987545,9.72654056549,9e-08,0.0,0.0,0.0,9e-08,0.0,0.0,0.0,9e-08
1560461787242985234,40745,1560461787239051712,base_link,-0.00815061094004,-0.00330750637021,-0.670612438824,-0.741755850227,1.0,0.0,0.0,0.0,1.0,0.0,0.0,0.0,1.0,3.2344894862e-05,0.000288993585855,0.00595505954698,1.21846967915e-07,0.0,0.0,0.0,1.21846967915e-07,0.0,0.0,0.0,1.21846967915e-07,0.0860978215933,0.133157104254,9.85025787354,9e-08,0.0,0.0,0.0,9e-08,0.0,0.0,0.0,9e-08
1560461787264414486,40746,1560461787260047360,base_link,-0.00814886793736,-0.00330837482578,-0.670635840862,-0.741734724119,1.0,0.0,0.0,0.0,1.0,0.0,0.0,0.0,1.0,-0.000313078489853,-0.00156135100406,0.00522294640541,1.21846967915e-07,0.0,0.0,0.0,1.21846967915e-07,0.0,0.0,0.0,1.21846967915e-07,0.0735234767199,0.156907096505,9.75294303894,9e-08,0.0,0.0,0.0,9e-08,0.0,0.0,0.0,9e-08
1560461787283651372,40747,1560461787281047360,base_link,-0.00814689707828,-0.003305435577,-0.67065592647,-0.741716492973,1.0,0.0,0.0,0.0,1.0,0.0,0.0,0.0,1.0,-0.000202651164727,0.000182379037142,0.00466317404062,1.21846967915e-07,0.0,0.0,0.0,1.21846967915e-07,0.0,0.0,0.0,1.21846967915e-07,0.084072522819,0.137380614877,9.79667854309,9e-08,0.0,0.0,0.0,9e-08,0.0,0.0,0.0,9e-08
1560461787304510387,40748,1560461787301047360,base_link,-0.00814557142819,-0.00330693903412,-0.670680787842,-0.741694160412,1.0,0.0,0.0,0.0,1.0,0.0,0.0,0.0,1.0,0.000662102829665,-0.000237277941778,0.00550037482753,1.21846967915e-07,0.0,0.0,0.0,1.21846967915e-07,0.0,0.0,0.0,1.21846967915e-07,0.0585519969463,0.142376199365,9.77964687347,9e-08,0.0,0.0,0.0,9e-08,0.0,0.0,0.0,9e-08
1560461787323832835,40749,1560461787321047360,base_link,-0.0081426608261,-0.00329980419828,-0.670704945889,-0.741672278295,1.0,0.0,0.0,0.0,1.0,0.0,0.0,0.0,1.0,-0.00158240506425,0.00102952192537,0.00424752384424,1.21846967915e-07,0.0,0.0,0.0,1.21846967915e-07,0.0,0.0,0.0,1.21846967915e-07,0.0695101246238,0.157599240541,9.78762149811,9e-08,0.0,0.0,0.0,9e-08,0.0,0.0,0.0,9e-08
1560461787344845836,40750,1560461787341047360,base_link,-0.00814809497074,-0.00330493574172,-0.670726954446,-0.741652292786,1.0,0.0,0.0,0.0,1.0,0.0,0.0,0.0,1.0,0.00119135365821,-0.000550387252588,0.00549347605556,1.21846967915e-07,0.0,0.0,0.0,1.21846967915e-07,0.0,0.0,0.0,1.21846967915e-07,0.043767593801,0.138950124383,9.77073192596,9e-08,0.0,0.0,0.0,9e-08,0.0,0.0,0.0,9e-08
1560461787363605560,40751,1560461787361045312,base_link,-0.00814697560972,-0.00329864911121,-0.670751649865,-0.741630041884,1.0,0.0,0.0,0.0,1.0,0.0,0.0,0.0,1.0,0.000656907679513,-0.00172859989107,0.00519795389846,1.21846967915e-07,0.0,0.0,0.0,1.21846967915e-07,0.0,0.0,0.0,1.21846967915e-07,0.0326804295182,0.163272112608,9.76672267914,9e-08,0.0,0.0,0.0,9e-08,0.0,0.0,0.0,9e-08
1560461787385054823,40752,1560461787381045312,base_link,-0.00815244465722,-0.00330636412476,-0.670776403236,-0.741607564443,1.0,0.0,0.0,0.0,1.0,0.0,0.0,0.0,1.0,0.000660700083245,0.0010351149831,0.00474882218987,1.21846967915e-07,0.0,0.0,0.0,1.21846967915e-07,0.0,0.0,0.0,1.21846967915e-07,0.06783490628,0.165127247572,9.83355140686,9e-08,0.0,0.0,0.0,9e-08,0.0,0.0,0.0,9e-08
1560461787403163309,40753,1560461787401045312,base_link,-0.00815259217119,-0.00330756004159,-0.670799354829,-0.741586720192,1.0,0.0,0.0,0.0,1.0,0.0,0.0,0.0,1.0,0.00139071431477,-0.000564221874811,0.00410735001788,1.21846967915e-07,0.0,0.0,0.0,1.21846967915e-07,0.0,0.0,0.0,1.21846967915e-07,0.0462346971035,0.189046502113,9.78172206879,9e-08,0.0,0.0,0.0,9e-08,0.0,0.0,0.0,9e-08
1560461787424404477,40754,1560461787421045312,base_link,-0.00815099075558,-0.0033149764052,-0.670817391046,-0.741570454143,1.0,0.0,0.0,0.0,1.0,0.0,0.0,0.0,1.0,0.000127786319354,8.38020350784e-05,0.00518331443891,1.21846967915e-07,0.0,0.0,0.0,1.21846967915e-07,0.0,0.0,0.0,1.21846967915e-07,0.0625406727195,0.176191061735,9.78858089447,9e-08,0.0,0.0,0.0,9e-08,0.0,0.0,0.0,9e-08
1560461787443763780,40755,1560461787441045312,base_link,-0.00814514683162,-0.00331864318102,-0.6708413647,-0.741548756419,1.0,0.0,0.0,0.0,1.0,0.0,0.0,0.0,1.0,-0.00061867054319,-2.8881826438e-05,0.00532493786886,1.21846967915e-07,0.0,0.0,0.0,1.21846967915e-07,0.0,0.0,0.0,1.21846967915e-07,0.0616518221796,0.168971717358,9.84843063354,9e-08,0.0,0.0,0.0,9e-08,0.0,0.0,0.0,9e-08
1560461787464766953,40756,1560461787461043264,base_link,-0.00814329796791,-0.00332043804408,-0.670866262951,-0.741526218391,1.0,0.0,0.0,0.0,1.0,0.0,0.0,0.0,1.0,-0.000305895839119,0.00145744415931,0.00477206520736,1.21846967915e-07,0.0,0.0,0.0,1.21846967915e-07,0.0,0.0,0.0,1.21846967915e-07,0.0616964437068,0.174242377281,9.82210731506,9e-08,0.0,0.0,0.0,9e-08,0.0,0.0,0.0,9e-08
1560461787484799922,40757,1560461787481043264,base_link,-0.00814261176453,-0.00332765569188,-0.670892934004,-0.74150207615,1.0,0.0,0.0,0.0,1.0,0.0,0.0,0.0,1.0,0.000117440016766,0.000181913608685,0.00444821408018,1.21846967915e-07,0.0,0.0,0.0,1.21846967915e-07,0.0,0.0,0.0,1.21846967915e-07,0.0584085136652,0.170337617397,9.78729820251,9e-08,0.0,0.0,0.0,9e-08,0.0,0.0,0.0,9e-08
1560461787503666900,40758,1560461787501043264,base_link,-0.00814326948586,-0.00332285967687,-0.670917895475,-0.741479474902,1.0,0.0,0.0,0.0,1.0,0.0,0.0,0.0,1.0,-0.000115383852972,-3.85113526136e-05,0.00370963220485,1.21846967915e-07,0.0,0.0,0.0,1.21846967915e-07,0.0,0.0,0.0,1.21846967915e-07,0.0503645837307,0.159584283829,9.82486629486,9e-08,0.0,0.0,0.0,9e-08,0.0,0.0,0.0,9e-08
1560461787523930133,40759,1560461787521043264,base_link,-0.00814256039806,-0.00333066128902,-0.670940588919,-0.741458888801,1.0,0.0,0.0,0.0,1.0,0.0,0.0,0.0,1.0,0.00109662208706,0.00125292036682,0.00581746920943,1.21846967915e-07,0.0,0.0,0.0,1.21846967915e-07,0.0,0.0,0.0,1.21846967915e-07,0.0371221229434,0.178360700607,9.79201030731,9e-08,0.0,0.0,0.0,9e-08,0.0,0.0,0.0,9e-08
1560461787543769520,40760,1560461787541043264,base_link,-0.00813872898611,-0.00332587498753,-0.670969301459,-0.741433042246,1.0,0.0,0.0,0.0,1.0,0.0,0.0,0.0,1.0,-0.00221360428259,-2.23279930651e-05,0.00480000395328,1.21846967915e-07,0.0,0.0,0.0,1.21846967915e-07,0.0,0.0,0.0,1.21846967915e-07,0.0653875023127,0.174905493855,9.85073375702,9e-08,0.0,0.0,0.0,9e-08,0.0,0.0,0.0,9e-08
1560461787563244927,40761,1560461787561041216,base_link,-0.00813756879533,-0.00331607963189,-0.670992126612,-0.741412577317,1.0,0.0,0.0,0.0,1.0,0.0,0.0,0.0,1.0,0.00011716777226,0.000496276654303,0.0044428310357,1.21846967915e-07,0.0,0.0,0.0,1.21846967915e-07,0.0,0.0,0.0,1.21846967915e-07,0.0795580744743,0.175402671099,9.76826763153,9e-08,0.0,0.0,0.0,9e-08,0.0,0.0,0.0,9e-08
1560461787583875498,40762,1560461787581041216,base_link,-0.00813527788362,-0.0033081657379,-0.671013934972,-0.741392792006,1.0,0.0,0.0,0.0,1.0,0.0,0.0,0.0,1.0,0.000982604804449,-0.00077502115164,0.00550327915698,1.21846967915e-07,0.0,0.0,0.0,1.21846967915e-07,0.0,0.0,0.0,1.21846967915e-07,0.110921539366,0.162922084332,9.83072090149,9e-08,0.0,0.0,0.0,9e-08,0.0,0.0,0.0,9e-08
1560461787602835083,40763,1560461787601041216,base_link,-0.00813817284528,-0.0033123738373,-0.671039634013,-0.741369537482,1.0,0.0,0.0,0.0,1.0,0.0,0.0,0.0,1.0,2.89747549687e-06,-0.000464501325041,0.00370403472334,1.21846967915e-07,0.0,0.0,0.0,1.21846967915e-07,0.0,0.0,0.0,1.21846967915e-07,0.0481581762433,0.150901257992,9.80430793762,9e-08,0.0,0.0,0.0,9e-08,0.0,0.0,0.0,9e-08
1560461787625068037,40764,1560461787622041216,base_link,-0.0081361842055,-0.00330952085786,-0.671061218467,-0.74135006037,1.0,0.0,0.0,0.0,1.0,0.0,0.0,0.0,1.0,-0.000938703364227,0.00124021270312,0.00509178917855,1.21846967915e-07,0.0,0.0,0.0,1.21846967915e-07,0.0,0.0,0.0,1.21846967915e-07,0.0458672195673,0.152275383472,9.80371379852,9e-08,0.0,0.0,0.0,9e-08,0.0,0.0,0.0,9e-08
1560461787643491291,40765,1560461787638041216,base_link,-0.0081290846018,-0.00330731917893,-0.671086129889,-0.741327509172,1.0,0.0,0.0,0.0,1.0,0.0,0.0,0.0,1.0,-0.00166950991843,-0.00045959308045,0.00627775490284,1.21846967915e-07,0.0,0.0,0.0,1.21846967915e-07,0.0,0.0,0.0,1.21846967915e-07,0.0762862637639,0.167431697249,9.77141094208,9e-08,0.0,0.0,0.0,9e-08,0.0,0.0,0.0,9e-08
1560461787662858853,40766,1560461787659039168,base_link,-0.00811804558484,-0.00329200456176,-0.671109950761,-0.741306132817,1.0,0.0,0.0,0.0,1.0,0.0,0.0,0.0,1.0,-0.000614260730799,0.00135411543306,0.00507419696078,1.21846967915e-07,0.0,0.0,0.0,1.21846967915e-07,0.0,0.0,0.0,1.21846967915e-07,0.0598025247455,0.166392058134,9.81832504272,9e-08,0.0,0.0,0.0,9e-08,0.0,0.0,0.0,9e-08
1560461787685957167,40767,1560461787683039168,base_link,-0.00812361555429,-0.00329137499321,-0.671140667911,-0.741278281652,1.0,0.0,0.0,0.0,1.0,0.0,0.0,0.0,1.0,0.000645939493552,0.00049550854601,0.00421855505556,1.21846967915e-07,0.0,0.0,0.0,1.21846967915e-07,0.0,0.0,0.0,1.21846967915e-07,0.0735729411244,0.144121259451,9.78153038025,9e-08,0.0,0.0,0.0,9e-08,0.0,0.0,0.0,9e-08
1560461787701927337,40768,1560461787699039168,base_link,-0.00812476191564,-0.00329319076506,-0.671156054145,-0.741264328411,1.0,0.0,0.0,0.0,1.0,0.0,0.0,0.0,1.0,-0.000107118466985,-0.000146203208715,0.00359036773443,1.21846967915e-07,0.0,0.0,0.0,1.21846967915e-07,0.0,0.0,0.0,1.21846967915e-07,0.0646278783679,0.15049842,9.82657909393,9e-08,0.0,0.0,0.0,9e-08,0.0,0.0,0.0,9e-08
1560461787725535782,40769,1560461787723039168,base_link,-0.00811963728692,-0.00329461832492,-0.67118649734,-0.741236835495,1.0,0.0,0.0,0.0,1.0,0.0,0.0,0.0,1.0,0.002703206148,0.00092415639665,0.00632211752236,1.21846967915e-07,0.0,0.0,0.0,1.21846967915e-07,0.0,0.0,0.0,1.21846967915e-07,0.0355135090649,0.180226355791,9.81025695801,9e-08,0.0,0.0,0.0,9e-08,0.0,0.0,0.0,9e-08
1560461787745163385,40770,1560461787743039168,base_link,-0.00812898878357,-0.0032881762779,-0.671210528947,-0.741214995525,1.0,0.0,0.0,0.0,1.0,0.0,0.0,0.0,1.0,0.000231502839597,-0.000357839395292,0.00475745555013,1.21846967915e-07,0.0,0.0,0.0,1.21846967915e-07,0.0,0.0,0.0,1.21846967915e-07,0.0380561985075,0.169964909554,9.79929256439,9e-08,0.0,0.0,0.0,9e-08,0.0,0.0,0.0,9e-08
1560461787763147435,40771,1560461787759036864,base_link,-0.00812683698939,-0.00328765306429,-0.671225543761,-0.741201413703,1.0,0.0,0.0,0.0,1.0,0.0,0.0,0.0,1.0,0.000542384164874,0.000918576028198,0.00410890532658,1.21846967915e-07,0.0,0.0,0.0,1.21846967915e-07,0.0,0.0,0.0,1.21846967915e-07,0.0885309055448,0.177433505654,9.79713630676,9e-08,0.0,0.0,0.0,9e-08,0.0,0.0,0.0,9e-08
1560461787784074888,40772,1560461787779036864,base_link,-0.008127996357,-0.00328447986758,-0.671248023837,-0.741180956677,1.0,0.0,0.0,0.0,1.0,0.0,0.0,0.0,1.0,-0.000421530305175,-0.00131296564359,0.00444511463866,1.21846967915e-07,0.0,0.0,0.0,1.21846967915e-07,0.0,0.0,0.0,1.21846967915e-07,0.0565927997231,0.157200679183,9.76448917389,9e-08,0.0,0.0,0.0,9e-08,0.0,0.0,0.0,9e-08
1560461787802103831,40773,1560461787799036864,base_link,-0.00813640975699,-0.00327926172553,-0.671265683366,-0.741164898727,1.0,0.0,0.0,0.0,1.0,0.0,0.0,0.0,1.0,-0.000518131826539,-0.0020547893364,0.00497673917562,1.21846967915e-07,0.0,0.0,0.0,1.21846967915e-07,0.0,0.0,0.0,1.21846967915e-07,0.0722468644381,0.129340454936,9.79423141479,9e-08,0.0,0.0,0.0,9e-08,0.0,0.0,0.0,9e-08
1560461787823952531,40774,1560461787819036864,base_link,-0.00813489033018,-0.00327472517705,-0.671292633642,-0.74114064585,1.0,0.0,0.0,0.0,1.0,0.0,0.0,0.0,1.0,-0.000816599931568,-0.000248074764386,0.00627584848553,1.21846967915e-07,0.0,0.0,0.0,1.21846967915e-07,0.0,0.0,0.0,1.21846967915e-07,0.0550438016653,0.163083821535,9.80721092224,9e-08,0.0,0.0,0.0,9e-08,0.0,0.0,0.0,9e-08
1560461787843512026,40775,1560461787839036864,base_link,-0.00814256303224,-0.00327650917413,-0.671315911873,-0.741119306374,1.0,0.0,0.0,0.0,1.0,0.0,0.0,0.0,1.0,0.00139541411772,-0.00110349385068,0.00464968755841,1.21846967915e-07,0.0,0.0,0.0,1.21846967915e-07,0.0,0.0,0.0,1.21846967915e-07,0.0699892565608,0.123681567609,9.81768608093,9e-08,0.0,0.0,0.0,9e-08,0.0,0.0,0.0,9e-08
1560461787863676453,40776,1560461787860034816,base_link,-0.00815087468711,-0.00326462557384,-0.671340515096,-0.741097147668,1.0,0.0,0.0,0.0,1.0,0.0,0.0,0.0,1.0,0.000559699372388,-0.00120226480067,0.00541006494313,1.21846967915e-07,0.0,0.0,0.0,1.21846967915e-07,0.0,0.0,0.0,1.21846967915e-07,0.0760154575109,0.150836780667,9.73370265961,9e-08,0.0,0.0,0.0,9e-08,0.0,0.0,0.0,9e-08
1560461787884401514,40777,1560461787880034816,base_link,-0.00814929187539,-0.00326913890863,-0.671356080454,-0.741083015303,1.0,0.0,0.0,0.0,1.0,0.0,0.0,0.0,1.0,0.000430449901614,0.00102138181683,0.00369104091078,1.21846967915e-07,0.0,0.0,0.0,1.21846967915e-07,0.0,0.0,0.0,1.21846967915e-07,0.0719822198153,0.13350404799,9.79466819763,9e-08,0.0,0.0,0.0,9e-08,0.0,0.0,0.0,9e-08
1560461787904533600,40778,1560461787900034816,base_link,-0.00815578002052,-0.00327219439051,-0.67137674558,-0.741064204638,1.0,0.0,0.0,0.0,1.0,0.0,0.0,0.0,1.0,-0.000318171951221,-0.00110544159543,0.00402813451365,1.21846967915e-07,0.0,0.0,0.0,1.21846967915e-07,0.0,0.0,0.0,1.21846967915e-07,0.0542897544801,0.179985031486,9.78620910645,9e-08,0.0,0.0,0.0,9e-08,0.0,0.0,0.0,9e-08
1560461787924386058,40779,1560461787920034816,base_link,-0.00815500985271,-0.0032718634719,-0.671397684662,-0.741045288606,1.0,0.0,0.0,0.0,1.0,0.0,0.0,0.0,1.0,-0.000436144502601,0.000591536285356,0.00295876245946,1.21846967915e-07,0.0,0.0,0.0,1.21846967915e-07,0.0,0.0,0.0,1.21846967915e-07,0.0420139618218,0.196868747473,9.82585048676,9e-08,0.0,0.0,0.0,9e-08,0.0,0.0,0.0,9e-08
1560461787943879301,40780,1560461787940034816,base_link,-0.0081494614506,-0.00327302596759,-0.671419766976,-0.741025313634,1.0,0.0,0.0,0.0,1.0,0.0,0.0,0.0,1.0,0.000327064219164,6.62133097649e-05,0.00433338526636,1.21846967915e-07,0.0,0.0,0.0,1.21846967915e-07,0.0,0.0,0.0,1.21846967915e-07,0.0648981556296,0.151101320982,9.80923461914,9e-08,0.0,0.0,0.0,9e-08,0.0,0.0,0.0,9e-08
1560461787963359579,40781,1560461787960032256,base_link,-0.00815032496708,-0.00328067216323,-0.671436883865,-0.741009798325,1.0,0.0,0.0,0.0,1.0,0.0,0.0,0.0,1.0,0.000747752725147,0.000604247907177,0.00389041937888,1.21846967915e-07,0.0,0.0,0.0,1.21846967915e-07,0.0,0.0,0.0,1.21846967915e-07,0.0719796568155,0.150107294321,9.80344676971,9e-08,0.0,0.0,0.0,9e-08,0.0,0.0,0.0,9e-08
1560461787984342605,40782,1560461787980032256,base_link,-0.00815398993191,-0.00328215833355,-0.671459087352,-0.740989533593,1.0,0.0,0.0,0.0,1.0,0.0,0.0,0.0,1.0,-0.000419159187004,0.000913321040571,0.00476010562852,1.21846967915e-07,0.0,0.0,0.0,1.21846967915e-07,0.0,0.0,0.0,1.21846967915e-07,0.0988730639219,0.157952487469,9.79026412964,9e-08,0.0,0.0,0.0,9e-08,0.0,0.0,0.0,9e-08
1560461788003016707,40783,1560461788000032256,base_link,-0.00814112575885,-0.00328795632404,-0.671480990542,-0.740969737745,1.0,0.0,0.0,0.0,1.0,0.0,0.0,0.0,1.0,0.001812464674,6.56495103613e-05,0.00398012856022,1.21846967915e-07,0.0,0.0,0.0,1.21846967915e-07,0.0,0.0,0.0,1.21846967915e-07,0.0129458978772,0.188078641891,9.80147266388,9e-08,0.0,0.0,0.0,9e-08,0.0,0.0,0.0,9e-08
1560461788024599132,40784,1560461788020032256,base_link,-0.00814646935363,-0.00329016096641,-0.671503167687,-0.740949667943,1.0,0.0,0.0,0.0,1.0,0.0,0.0,0.0,1.0,-0.00168516254053,0.00134976627305,0.00508662126958,1.21846967915e-07,0.0,0.0,0.0,1.21846967915e-07,0.0,0.0,0.0,1.21846967915e-07,0.0346515066922,0.21021130681,9.79076480865,9e-08,0.0,0.0,0.0,9e-08,0.0,0.0,0.0,9e-08
1560461788044033098,40785,1560461788040032256,base_link,-0.00814751479303,-0.00329199731777,-0.671522971437,-0.740931718654,1.0,0.0,0.0,0.0,1.0,0.0,0.0,0.0,1.0,-0.000207085438888,-0.000668719294481,0.00464204698801,1.21846967915e-07,0.0,0.0,0.0,1.21846967915e-07,0.0,0.0,0.0,1.21846967915e-07,0.0584695152938,0.172282367945,9.8673210144,9e-08,0.0,0.0,0.0,9e-08,0.0,0.0,0.0,9e-08
1560461788064399817,40786,1560461788060030208,base_link,-0.00813562608903,-0.0032979472674,-0.671538744895,-0.740917462482,1.0,0.0,0.0,0.0,1.0,0.0,0.0,0.0,1.0,0.000511606573127,0.00219748471864,0.0031337630935,1.21846967915e-07,0.0,0.0,0.0,1.21846967915e-07,0.0,0.0,0.0,1.21846967915e-07,0.0248922854662,0.150853306055,9.76818656921,9e-08,0.0,0.0,0.0,9e-08,0.0,0.0,0.0,9e-08
1560461788084615166,40787,1560461788080030208,base_link,-0.00815375252661,-0.00329747245681,-0.671558332643,-0.740899476315,1.0,0.0,0.0,0.0,1.0,0.0,0.0,0.0,1.0,0.00204193172976,0.000279065337963,0.00523671647534,1.21846967915e-07,0.0,0.0,0.0,1.21846967915e-07,0.0,0.0,0.0,1.21846967915e-07,0.079240962863,0.160687983036,9.87144565582,9e-08,0.0,0.0,0.0,9e-08,0.0,0.0,0.0,9e-08
1560461788103160858,40788,1560461788100030208,base_link,-0.00815117416023,-0.00329401855551,-0.671584231881,-0.740876105887,1.0,0.0,0.0,0.0,1.0,0.0,0.0,0.0,1.0,-0.000182961055543,0.000392130343243,0.00580294243991,1.21846967915e-07,0.0,0.0,0.0,1.21846967915e-07,0.0,0.0,0.0,1.21846967915e-07,0.0559251606464,0.197738170624,9.776263237,9e-08,0.0,0.0,0.0,9e-08,0.0,0.0,0.0,9e-08
1560461788125126182,40789,1560461788120030208,base_link,-0.0081513513087,-0.00329946142586,-0.671603316501,-0.740858791435,1.0,0.0,0.0,0.0,1.0,0.0,0.0,0.0,1.0,0.000240358043811,0.00135352753568,0.00525662768632,1.21846967915e-07,0.0,0.0,0.0,1.21846967915e-07,0.0,0.0,0.0,1.21846967915e-07,0.0328451618552,0.16655510664,9.80211734772,9e-08,0.0,0.0,0.0,9e-08,0.0,0.0,0.0,9e-08
1560461788142963691,40790,1560461788140030208,base_link,-0.00815784834418,-0.00330143063858,-0.671623971091,-0.740839991306,1.0,0.0,0.0,0.0,1.0,0.0,0.0,0.0,1.0,0.00042942885193,0.00038186123129,0.0045224968344,1.21846967915e-07,0.0,0.0,0.0,1.21846967915e-07,0.0,0.0,0.0,1.21846967915e-07,0.0834021121264,0.159656137228,9.80838298798,9e-08,0.0,0.0,0.0,9e-08,0.0,0.0,0.0,9e-08
1560461788163924988,40791,1560461788160027136,base_link,-0.00815412806162,-0.00330360202446,-0.671643079419,-0.740822653147,1.0,0.0,0.0,0.0,1.0,0.0,0.0,0.0,1.0,-0.000398202071665,0.0019881434273,0.00525473896414,1.21846967915e-07,0.0,0.0,0.0,1.21846967915e-07,0.0,0.0,0.0,1.21846967915e-07,0.0363517478108,0.145088642836,9.83833503723,9e-08,0.0,0.0,0.0,9e-08,0.0,0.0,0.0,9e-08
1560461788182423574,40792,1560461788180027136,base_link,-0.00815087106512,-0.00330337136924,-0.671663070196,-0.740804516831,1.0,0.0,0.0,0.0,1.0,0.0,0.0,0.0,1.0,0.000124209735077,-0.00109473662451,0.00473628146574,1.21846967915e-07,0.0,0.0,0.0,1.21846967915e-07,0.0,0.0,0.0,1.21846967915e-07,0.0512162521482,0.145766079426,9.82110595703,9e-08,0.0,0.0,0.0,9e-08,0.0,0.0,0.0,9e-08
1560461788203734553,40793,1560461788200027136,base_link,-0.00816176569618,-0.00330157650619,-0.671686917409,-0.740782861253,1.0,0.0,0.0,0.0,1.0,0.0,0.0,0.0,1.0,0.000217508437345,0.000810702913441,0.00387315568514,1.21846967915e-07,0.0,0.0,0.0,1.21846967915e-07,0.0,0.0,0.0,1.21846967915e-07,0.0821342244744,0.167930334806,9.77001953125,9e-08,0.0,0.0,0.0,9e-08,0.0,0.0,0.0,9e-08
1560461788223888355,40794,1560461788220027136,base_link,-0.00815361242127,-0.00329693821258,-0.671706381351,-0.740765336067,1.0,0.0,0.0,0.0,1.0,0.0,0.0,0.0,1.0,-0.000512500933837,0.000397290452383,0.00515552936122,1.21846967915e-07,0.0,0.0,0.0,1.21846967915e-07,0.0,0.0,0.0,1.21846967915e-07,0.0556684918702,0.164432376623,9.83823490143,9e-08,0.0,0.0,0.0,9e-08,0.0,0.0,0.0,9e-08
1560461788243655355,40795,1560461788240027136,base_link,-0.00815525532518,-0.00329073027814,-0.671726704034,-0.740746867845,1.0,0.0,0.0,0.0,1.0,0.0,0.0,0.0,1.0,0.00214128918014,-0.00164282799233,0.00449116807431,1.21846967915e-07,0.0,0.0,0.0,1.21846967915e-07,0.0,0.0,0.0,1.21846967915e-07,0.0875010862947,0.177397966385,9.78904533386,9e-08,0.0,0.0,0.0,9e-08,0.0,0.0,0.0,9e-08
1560461788264643708,40796,1560461788260023552,base_link,-0.00814992868793,-0.00329034996869,-0.671748349075,-0.74072741444,1.0,0.0,0.0,0.0,1.0,0.0,0.0,0.0,1.0,-9.47570006247e-05,0.00156018976122,0.00461009610444,1.21846967915e-07,0.0,0.0,0.0,1.21846967915e-07,0.0,0.0,0.0,1.21846967915e-07,0.118358597159,0.160670742393,9.78039360046,9e-08,0.0,0.0,0.0,9e-08,0.0,0.0,0.0,9e-08
1560461788283735354,40797,1560461788280023552,base_link,-0.00814844284688,-0.00329371529576,-0.671771411304,-0.740706459554,1.0,0.0,0.0,0.0,1.0,0.0,0.0,0.0,1.0,0.000244873081101,-0.0001360187307,0.00609297398478,1.21846967915e-07,0.0,0.0,0.0,1.21846967915e-07,0.0,0.0,0.0,1.21846967915e-07,0.0814851373434,0.135605096817,9.8272895813,9e-08,0.0,0.0,0.0,9e-08,0.0,0.0,0.0,9e-08
1560461788304706774,40798,1560461788300023552,base_link,-0.00814780521116,-0.00329304506209,-0.671786183774,-0.740693035782,1.0,0.0,0.0,0.0,1.0,0.0,0.0,0.0,1.0,-1.42935095937e-06,0.000599679304287,0.00398460309952,1.21846967915e-07,0.0,0.0,0.0,1.21846967915e-07,0.0,0.0,0.0,1.21846967915e-07,0.0813773050904,0.151896625757,9.7932138443,9e-08,0.0,0.0,0.0,9e-08,0.0,0.0,0.0,9e-08
1560461788323839910,40799,1560461788321023552,base_link,-0.00814247972636,-0.00328741236627,-0.671809404054,-0.740672091433,1.0,0.0,0.0,0.0,1.0,0.0,0.0,0.0,1.0,0.00109234685078,-0.000350520771462,0.00588265201077,1.21846967915e-07,0.0,0.0,0.0,1.21846967915e-07,0.0,0.0,0.0,1.21846967915e-07,0.0233962610364,0.139443457127,9.80679893494,9e-08,0.0,0.0,0.0,9e-08,0.0,0.0,0.0,9e-08
1560461788343781513,40800,1560461788341023552,base_link,-0.00814411357528,-0.00328380156674,-0.671832816628,-0.740650786201,1.0,0.0,0.0,0.0,1.0,0.0,0.0,0.0,1.0,-0.000413743691752,7.0005771704e-05,0.00462042260915,1.21846967915e-07,0.0,0.0,0.0,1.21846967915e-07,0.0,0.0,0.0,1.21846967915e-07,0.0720742568374,0.128355354071,9.77744674683,9e-08,0.0,0.0,0.0,9e-08,0.0,0.0,0.0,9e-08
1560461788364608905,40801,1560461788361021248,base_link,-0.00814474429629,-0.00328669669303,-0.671854535426,-0.740631090452,1.0,0.0,0.0,0.0,1.0,0.0,0.0,0.0,1.0,-0.000543175614439,-0.000787203200161,0.00303031434305,1.21846967915e-07,0.0,0.0,0.0,1.21846967915e-07,0.0,0.0,0.0,1.21846967915e-07,0.0721163973212,0.132850319147,9.81866645813,9e-08,0.0,0.0,0.0,9e-08,0.0,0.0,0.0,9e-08
1560461788383493212,40802,1560461788381021248,base_link,-0.00814618749658,-0.00328143393459,-0.671874652644,-0.740612911989,1.0,0.0,0.0,0.0,1.0,0.0,0.0,0.0,1.0,0.00128870550543,-0.001007884508,0.00417799456045,1.21846967915e-07,0.0,0.0,0.0,1.21846967915e-07,0.0,0.0,0.0,1.21846967915e-07,0.0613282881677,0.157460331917,9.7945098877,9e-08,0.0,0.0,0.0,9e-08,0.0,0.0,0.0,9e-08
1560461788403292691,40803,1560461788401021248,base_link,-0.00815758196293,-0.00327839903223,-0.671892396467,-0.740596685453,1.0,0.0,0.0,0.0,1.0,0.0,0.0,0.0,1.0,0.000120271302876,-0.00109878485091,0.00482641952112,1.21846967915e-07,0.0,0.0,0.0,1.21846967915e-07,0.0,0.0,0.0,1.21846967915e-07,0.095549210906,0.179156810045,9.81578922272,9e-08,0.0,0.0,0.0,9e-08,0.0,0.0,0.0,9e-08
1560461788424638921,40804,1560461788421021248,base_link,-0.00815194762075,-0.00327774164017,-0.671913169595,-0.74057785108,1.0,0.0,0.0,0.0,1.0,0.0,0.0,0.0,1.0,-0.00117972656153,-0.000255295308307,0.00367594277486,1.21846967915e-07,0.0,0.0,0.0,1.21846967915e-07,0.0,0.0,0.0,1.21846967915e-07,0.0499383285642,0.133369937539,9.78800296783,9e-08,0.0,0.0,0.0,9e-08,0.0,0.0,0.0,9e-08
1560461788443605628,40805,1560461788441021248,base_link,-0.0081516753126,-0.00326778016667,-0.671933829453,-0.74055921427,1.0,0.0,0.0,0.0,1.0,0.0,0.0,0.0,1.0,-0.00104965025093,0.00017601926811,0.00483651505783,1.21846967915e-07,0.0,0.0,0.0,1.21846967915e-07,0.0,0.0,0.0,1.21846967915e-07,0.0649590790272,0.162583947182,9.77913475037,9e-08,0.0,0.0,0.0,9e-08,0.0,0.0,0.0,9e-08
1560461788463988008,40806,1560461788461019200,base_link,-0.00815357488423,-0.0032670251454,-0.671953037879,-0.740541691718,1.0,0.0,0.0,0.0,1.0,0.0,0.0,0.0,1.0,-0.00147441169247,-0.000357380951755,0.00526500027627,1.21846967915e-07,0.0,0.0,0.0,1.21846967915e-07,0.0,0.0,0.0,1.21846967915e-07,0.0614907965064,0.162120759487,9.80220413208,9e-08,0.0,0.0,0.0,9e-08,0.0,0.0,0.0,9e-08
1560461788483677183,40807,1560461788481019200,base_link,-0.00814895272496,-0.00326753798693,-0.671971803764,-0.740524696001,1.0,0.0,0.0,0.0,1.0,0.0,0.0,0.0,1.0,0.000111358938739,-0.000252979109064,0.00418622745201,1.21846967915e-07,0.0,0.0,0.0,1.21846967915e-07,0.0,0.0,0.0,1.21846967915e-07,0.0995814278722,0.158866807818,9.81314563751,9e-08,0.0,0.0,0.0,9e-08,0.0,0.0,0.0,9e-08
1560461788504547540,40808,1560461788501019200,base_link,-0.00814941090731,-0.00326265175132,-0.671987045118,-0.74051088764,1.0,0.0,0.0,0.0,1.0,0.0,0.0,0.0,1.0,0.00042025136645,-0.000894206459634,0.00332374544814,1.21846967915e-07,0.0,0.0,0.0,1.21846967915e-07,0.0,0.0,0.0,1.21846967915e-07,0.0636194273829,0.173481076956,9.79306697845,9e-08,0.0,0.0,0.0,9e-08,0.0,0.0,0.0,9e-08
1560461788524239817,40809,1560461788521019200,base_link,-0.00815455562164,-0.00327639409347,-0.672002621012,-0.740496660444,1.0,0.0,0.0,0.0,1.0,0.0,0.0,0.0,1.0,0.000859127321746,0.00145176635124,0.00436773896217,1.21846967915e-07,0.0,0.0,0.0,1.21846967915e-07,0.0,0.0,0.0,1.21846967915e-07,0.0800600349903,0.149798929691,9.81077861786,9e-08,0.0,0.0,0.0,9e-08,0.0,0.0,0.0,9e-08
1560461788544246996,40810,1560461788541019200,base_link,-0.00814829171092,-0.0032786408827,-0.672017691145,-0.740483023305,1.0,0.0,0.0,0.0,1.0,0.0,0.0,0.0,1.0,-0.000837820116431,0.000496003194712,0.0048207975924,1.21846967915e-07,0.0,0.0,0.0,1.21846967915e-07,0.0,0.0,0.0,1.21846967915e-07,0.0373254045844,0.148242622614,9.78536701202,9e-08,0.0,0.0,0.0,9e-08,0.0,0.0,0.0,9e-08
1560461788563927060,40811,1560461788561017152,base_link,-0.00815786793588,-0.00327773505473,-0.672035377016,-0.740466939014,1.0,0.0,0.0,0.0,1.0,0.0,0.0,0.0,1.0,0.00183223665226,-0.00120353989769,0.00553686358035,1.21846967915e-07,0.0,0.0,0.0,1.21846967915e-07,0.0,0.0,0.0,1.21846967915e-07,0.0870253741741,0.137372776866,9.79706096649,9e-08,0.0,0.0,0.0,9e-08,0.0,0.0,0.0,9e-08
1560461788584169868,40812,1560461788581017152,base_link,-0.00815783369156,-0.00328243179416,-0.672056252877,-0.740448001908,1.0,0.0,0.0,0.0,1.0,0.0,0.0,0.0,1.0,-0.000322160165524,-0.000673994538374,0.0040710773319,1.21846967915e-07,0.0,0.0,0.0,1.21846967915e-07,0.0,0.0,0.0,1.21846967915e-07,0.0580189973116,0.173459634185,9.76754283905,9e-08,0.0,0.0,0.0,9e-08,0.0,0.0,0.0,9e-08
1560461788603690518,40813,1560461788601017152,base_link,-0.00815701577928,-0.00328293360507,-0.672075624622,-0.740430316036,1.0,0.0,0.0,0.0,1.0,0.0,0.0,0.0,1.0,-0.00124907819554,0.00145622063428,0.00609974283725,1.21846967915e-07,0.0,0.0,0.0,1.21846967915e-07,0.0,0.0,0.0,1.21846967915e-07,0.0540429539979,0.163051396608,9.79506397247,9e-08,0.0,0.0,0.0,9e-08,0.0,0.0,0.0,9e-08
1560461788624164054,40814,1560461788621017152,base_link,-0.00816317234725,-0.00327341319176,-0.672090736902,-0.740416552456,1.0,0.0,0.0,0.0,1.0,0.0,0.0,0.0,1.0,0.000210935773794,0.000493354396895,0.00490598427132,1.21846967915e-07,0.0,0.0,0.0,1.21846967915e-07,0.0,0.0,0.0,1.21846967915e-07,0.0378847718239,0.171312123537,9.81292915344,9e-08,0.0,0.0,0.0,9e-08,0.0,0.0,0.0,9e-08
1560461788643706640,40815,1560461788641017152,base_link,-0.00816578578113,-0.00327272929329,-0.672112842924,-0.740396469483,1.0,0.0,0.0,0.0,1.0,0.0,0.0,0.0,1.0,-0.000852643279359,-0.000147874467075,0.00364727107808,1.21846967915e-07,0.0,0.0,0.0,1.21846967915e-07,0.0,0.0,0.0,1.21846967915e-07,0.0770058557391,0.170374974608,9.79872226715,9e-08,0.0,0.0,0.0,9e-08,0.0,0.0,0.0,9e-08
1560461788664477818,40816,1560461788661015104,base_link,-0.00816876289622,-0.00327730436662,-0.672130017765,-0.740380811929,1.0,0.0,0.0,0.0,1.0,0.0,0.0,0.0,1.0,0.000873042969033,-0.000245481845923,0.00564776314422,1.21846967915e-07,0.0,0.0,0.0,1.21846967915e-07,0.0,0.0,0.0,1.21846967915e-07,0.0459698587656,0.178769439459,9.82511711121,9e-08,0.0,0.0,0.0,9e-08,0.0,0.0,0.0,9e-08
1560461788683705567,40817,1560461788681015104,base_link,-0.00817889345102,-0.00327307173643,-0.672149879467,-0.740362804688,1.0,0.0,0.0,0.0,1.0,0.0,0.0,0.0,1.0,0.00194900657516,-0.000458158319816,0.00626782700419,1.21846967915e-07,0.0,0.0,0.0,1.21846967915e-07,0.0,0.0,0.0,1.21846967915e-07,0.0609295964241,0.194149181247,9.83985137939,9e-08,0.0,0.0,0.0,9e-08,0.0,0.0,0.0,9e-08
1560461788703342783,40818,1560461788701015104,base_link,-0.00816690827025,-0.00327292652737,-0.672168729645,-0.740345724677,1.0,0.0,0.0,0.0,1.0,0.0,0.0,0.0,1.0,-0.00169478799216,0.00134468951728,0.00428398046643,1.21846967915e-07,0.0,0.0,0.0,1.21846967915e-07,0.0,0.0,0.0,1.21846967915e-07,0.0815071240067,0.182949960232,9.77845191956,9e-08,0.0,0.0,0.0,9e-08,0.0,0.0,0.0,9e-08
1560461788723856992,40819,1560461788721015104,base_link,-0.00815883731339,-0.00326684799692,-0.672187421772,-0.740328971305,1.0,0.0,0.0,0.0,1.0,0.0,0.0,0.0,1.0,0.00128165108617,-0.000146614736877,0.00414504576474,1.21846967915e-07,0.0,0.0,0.0,1.21846967915e-07,0.0,0.0,0.0,1.21846967915e-07,0.0553847625852,0.143002554774,9.78175640106,9e-08,0.0,0.0,0.0,9e-08,0.0,0.0,0.0,9e-08
1560461788744180621,40820,1560461788741015104,base_link,-0.00817274099895,-0.00325686923663,-0.672205676626,-0.740312233738,1.0,0.0,0.0,0.0,1.0,0.0,0.0,0.0,1.0,0.000210798709304,0.000488943769597,0.00362405343913,1.21846967915e-07,0.0,0.0,0.0,1.21846967915e-07,0.0,0.0,0.0,1.21846967915e-07,0.0971938669682,0.156907111406,9.80893421173,9e-08,0.0,0.0,0.0,9e-08,0.0,0.0,0.0,9e-08
1560461788764192220,40821,1560461788761012800,base_link,-0.00815816905535,-0.00326241253503,-0.67222447412,-0.740295374998,1.0,0.0,0.0,0.0,1.0,0.0,0.0,0.0,1.0,-0.000534594932105,0.00080837868154,0.00363098736852,1.21846967915e-07,0.0,0.0,0.0,1.21846967915e-07,0.0,0.0,0.0,1.21846967915e-07,0.0243745706975,0.150118514895,9.77838802338,9e-08,0.0,0.0,0.0,9e-08,0.0,0.0,0.0,9e-08
1560461788782635560,40822,1560461788777012800,base_link,-0.00816186842913,-0.00324910631397,-0.67223298515,-0.740287622612,1.0,0.0,0.0,0.0,1.0,0.0,0.0,0.0,1.0,0.00042473123176,-0.00238375808112,0.00373863847926,1.21846967915e-07,0.0,0.0,0.0,1.21846967915e-07,0.0,0.0,0.0,1.21846967915e-07,0.061712987721,0.142750144005,9.82747650146,9e-08,0.0,0.0,0.0,9e-08,0.0,0.0,0.0,9e-08
1560461788806920679,40823,1560461788803012800,base_link,-0.00817583500569,-0.00325021513828,-0.672261774081,-0.740261278198,1.0,0.0,0.0,0.0,1.0,0.0,0.0,0.0,1.0,0.000752122781705,0.000812888611108,0.00456831604242,1.21846967915e-07,0.0,0.0,0.0,1.21846967915e-07,0.0,0.0,0.0,1.21846967915e-07,0.0630683675408,0.185272321105,9.78544139862,9e-08,0.0,0.0,0.0,9e-08,0.0,0.0,0.0,9e-08
1560461788822484841,40824,1560461788819012800,base_link,-0.00816547511276,-0.0032491848454,-0.672270074376,-0.74025382084,1.0,0.0,0.0,0.0,1.0,0.0,0.0,0.0,1.0,-0.00183589698281,0.000592482392676,0.00216176314279,1.21846967915e-07,0.0,0.0,0.0,1.21846967915e-07,0.0,0.0,0.0,1.21846967915e-07,0.0346559025347,0.116501219571,9.79928016663,9e-08,0.0,0.0,0.0,9e-08,0.0,0.0,0.0,9e-08
1560461788842790940,40825,1560461788839012800,base_link,-0.00816837731841,-0.0032436748035,-0.672285434268,-0.740239978234,1.0,0.0,0.0,0.0,1.0,0.0,0.0,0.0,1.0,-9.09019290702e-05,-0.00109823048115,0.004805481527,1.21846967915e-07,0.0,0.0,0.0,1.21846967915e-07,0.0,0.0,0.0,1.21846967915e-07,0.0563957542181,0.14415448904,9.75722503662,9e-08,0.0,0.0,0.0,9e-08,0.0,0.0,0.0,9e-08
1560461788865306429,40826,1560461788863008704,base_link,-0.00817957537386,-0.00324621925485,-0.672303399363,-0.740223530427,1.0,0.0,0.0,0.0,1.0,0.0,0.0,0.0,1.0,0.000850425160024,0.000489856814966,0.00371467042714,1.21846967915e-07,0.0,0.0,0.0,1.21846967915e-07,0.0,0.0,0.0,1.21846967915e-07,0.126928150654,0.159368515015,9.82269763947,9e-08,0.0,0.0,0.0,9e-08,0.0,0.0,0.0,9e-08
1560461788883564491,40827,1560461788879008704,base_link,-0.00816866098646,-0.00324598316664,-0.672321511971,-0.740207187986,1.0,0.0,0.0,0.0,1.0,0.0,0.0,0.0,1.0,-0.0018987453077,0.000381925841793,0.00492846220732,1.21846967915e-07,0.0,0.0,0.0,1.21846967915e-07,0.0,0.0,0.0,1.21846967915e-07,0.0470380857587,0.157503813505,9.83661556244,9e-08,0.0,0.0,0.0,9e-08,0.0,0.0,0.0,9e-08
1560461788902783781,40828,1560461788899008704,base_link,-0.00818021959502,-0.00323924905514,-0.672341091816,-0.740189294015,1.0,0.0,0.0,0.0,1.0,0.0,0.0,0.0,1.0,0.000540828739759,-0.00206051021814,0.00468861078843,1.21846967915e-07,0.0,0.0,0.0,1.21846967915e-07,0.0,0.0,0.0,1.21846967915e-07,0.0576385483146,0.163928344846,9.77785778046,9e-08,0.0,0.0,0.0,9e-08,0.0,0.0,0.0,9e-08
1560461788923928280,40829,1560461788919008704,base_link,-0.008183332041,-0.00323981919005,-0.672355724675,-0.740175925561,1.0,0.0,0.0,0.0,1.0,0.0,0.0,0.0,1.0,-0.00180870853364,0.00124046136625,0.00405948841944,1.21846967915e-07,0.0,0.0,0.0,1.21846967915e-07,0.0,0.0,0.0,1.21846967915e-07,0.0604416839778,0.163137465715,9.72831821442,9e-08,0.0,0.0,0.0,9e-08,0.0,0.0,0.0,9e-08
1560461788945672584,40830,1560461788943008704,base_link,-0.00817254771614,-0.00323600094899,-0.672367994676,-0.740164919966,1.0,0.0,0.0,0.0,1.0,0.0,0.0,0.0,1.0,-0.000217532578972,0.000705148326233,0.0044616535306,1.21846967915e-07,0.0,0.0,0.0,1.21846967915e-07,0.0,0.0,0.0,1.21846967915e-07,0.0596048757434,0.121681086719,9.80376243591,9e-08,0.0,0.0,0.0,9e-08,0.0,0.0,0.0,9e-08
1560461788965702250,40831,1560461788963006656,base_link,-0.00817214781499,-0.00323158030434,-0.672387324275,-0.740147360535,1.0,0.0,0.0,0.0,1.0,0.0,0.0,0.0,1.0,0.00119587103836,-0.00174393132329,0.00574846426025,1.21846967915e-07,0.0,0.0,0.0,1.21846967915e-07,0.0,0.0,0.0,1.21846967915e-07,0.0614109858871,0.165916353464,9.82516002655,9e-08,0.0,0.0,0.0,9e-08,0.0,0.0,0.0,9e-08
1560461788982338472,40832,1560461788979006656,base_link,-0.00817448959926,-0.0032294268638,-0.672405760887,-0.740130609797,1.0,0.0,0.0,0.0,1.0,0.0,0.0,0.0,1.0,0.000450250779977,-3.67523171008e-05,0.00575187103823,1.21846967915e-07,0.0,0.0,0.0,1.21846967915e-07,0.0,0.0,0.0,1.21846967915e-07,0.0678317025304,0.174050539732,9.84017658234,9e-08,0.0,0.0,0.0,9e-08,0.0,0.0,0.0,9e-08
1560461789006681119,40833,1560461789003006656,base_link,-0.00816231278203,-0.003223848004,-0.672425367074,-0.740112942365,1.0,0.0,0.0,0.0,1.0,0.0,0.0,0.0,1.0,-9.3976057542e-05,-0.00131865323056,0.00459441868588,1.21846967915e-07,0.0,0.0,0.0,1.21846967915e-07,0.0,0.0,0.0,1.21846967915e-07,0.0692527070642,0.173267185688,9.80774974823,9e-08,0.0,0.0,0.0,9e-08,0.0,0.0,0.0,9e-08
1560461789022771827,40834,1560461789019006656,base_link,-0.00817166312623,-0.00322062080664,-0.672443134605,-0.74009669212,1.0,0.0,0.0,0.0,1.0,0.0,0.0,0.0,1.0,-7.07124709152e-05,0.000711034517735,0.00649358471856,1.21846967915e-07,0.0,0.0,0.0,1.21846967915e-07,0.0,0.0,0.0,1.21846967915e-07,0.0586758628488,0.156266450882,9.80418395996,9e-08,0.0,0.0,0.0,9e-08,0.0,0.0,0.0,9e-08
1560461789042664522,40835,1560461789039006656,base_link,-0.00816531706208,-0.00323283450236,-0.672459627193,-0.740081801112,1.0,0.0,0.0,0.0,1.0,0.0,0.0,0.0,1.0,0.000340981874615,0.00262243766338,0.00552332960069,1.21846967915e-07,0.0,0.0,0.0,1.21846967915e-07,0.0,0.0,0.0,1.21846967915e-07,0.0617844611406,0.17960716784,9.81718063354,9e-08,0.0,0.0,0.0,9e-08,0.0,0.0,0.0,9e-08
1560461789065225646,40836,1560461789063004864,base_link,-0.00816262460286,-0.00323695468607,-0.672489575163,-0.74005455054,1.0,0.0,0.0,0.0,1.0,0.0,0.0,0.0,1.0,0.00109210785013,-0.00109611800872,0.00595326162875,1.21846967915e-07,0.0,0.0,0.0,1.21846967915e-07,0.0,0.0,0.0,1.21846967915e-07,0.0468295142055,0.142972290516,9.80484199524,9e-08,0.0,0.0,0.0,9e-08,0.0,0.0,0.0,9e-08
1560461789083941950,40837,1560461789079004864,base_link,-0.00817164188817,-0.00323947641763,-0.672507637722,-0.740038005268,1.0,0.0,0.0,0.0,1.0,0.0,0.0,0.0,1.0,0.000967127154581,-0.00121391727589,0.00457237754017,1.21846967915e-07,0.0,0.0,0.0,1.21846967915e-07,0.0,0.0,0.0,1.21846967915e-07,0.0763838812709,0.166222512722,9.8053855896,9e-08,0.0,0.0,0.0,9e-08,0.0,0.0,0.0,9e-08
1560461789102632936,40838,1560461789099004864,base_link,-0.00817743312857,-0.00323863084648,-0.672523714111,-0.740023361872,1.0,0.0,0.0,0.0,1.0,0.0,0.0,0.0,1.0,0.000339396035997,0.000916439690627,0.00531346071512,1.21846967915e-07,0.0,0.0,0.0,1.21846967915e-07,0.0,0.0,0.0,1.21846967915e-07,0.0666190981865,0.164588600397,9.75454616547,9e-08,0.0,0.0,0.0,9e-08,0.0,0.0,0.0,9e-08
1560461789123828463,40839,1560461789119004864,base_link,-0.00817309134463,-0.00324324263367,-0.672540928464,-0.740007749099,1.0,0.0,0.0,0.0,1.0,0.0,0.0,0.0,1.0,0.00117850734387,-4.32814704254e-05,0.00445472449064,1.21846967915e-07,0.0,0.0,0.0,1.21846967915e-07,0.0,0.0,0.0,1.21846967915e-07,0.0954982042313,0.160853385925,9.77596569061,9e-08,0.0,0.0,0.0,9e-08,0.0,0.0,0.0,9e-08
1560461789146101478,40840,1560461789143004864,base_link,-0.00818258064172,-0.0032455623567,-0.672561230074,-0.739989133363,1.0,0.0,0.0,0.0,1.0,0.0,0.0,0.0,1.0,0.000959939614404,0.000486313831061,0.0040278271772,1.21846967915e-07,0.0,0.0,0.0,1.21846967915e-07,0.0,0.0,0.0,1.21846967915e-07,0.0683948993683,0.167669773102,9.81508922577,9e-08,0.0,0.0,0.0,9e-08,0.0,0.0,0.0,9e-08
1560461789162721548,40841,1560461789159002816,base_link,-0.00817835591407,-0.00324100210062,-0.672574153352,-0.739977558785,1.0,0.0,0.0,0.0,1.0,0.0,0.0,0.0,1.0,-0.000204898358788,-0.000364292762242,0.00447035441175,1.21846967915e-07,0.0,0.0,0.0,1.21846967915e-07,0.0,0.0,0.0,1.21846967915e-07,0.066610775888,0.162959933281,9.82314968109,9e-08,0.0,0.0,0.0,9e-08,0.0,0.0,0.0,9e-08
1560461789183944418,40842,1560461789179002816,base_link,-0.00817721333934,-0.00324091846547,-0.672594665696,-0.739958900902,1.0,0.0,0.0,0.0,1.0,0.0,0.0,0.0,1.0,0.000419677235186,-0.000794100575149,0.00339977676049,1.21846967915e-07,0.0,0.0,0.0,1.21846967915e-07,0.0,0.0,0.0,1.21846967915e-07,0.0491766221821,0.135734409094,9.80273628235,9e-08,0.0,0.0,0.0,9e-08,0.0,0.0,0.0,9e-08
1560461789201995286,40843,1560461789199002816,base_link,-0.00818546621912,-0.00323675646417,-0.672614854036,-0.739940567023,1.0,0.0,0.0,0.0,1.0,0.0,0.0,0.0,1.0,0.0020231208764,0.00103078887332,0.00464457087219,1.21846967915e-07,0.0,0.0,0.0,1.21846967915e-07,0.0,0.0,0.0,1.21846967915e-07,0.0887238606811,0.190829634666,9.84851551056,9e-08,0.0,0.0,0.0,9e-08,0.0,0.0,0.0,9e-08
1560461789223739264,40844,1560461789219002816,base_link,-0.00818047692129,-0.00323593739944,-0.672636991669,-0.739920368145,1.0,0.0,0.0,0.0,1.0,0.0,0.0,0.0,1.0,1.31575288833e-05,0.000386754400097,0.0053078350611,1.21846967915e-07,0.0,0.0,0.0,1.21846967915e-07,0.0,0.0,0.0,1.21846967915e-07,0.062853589654,0.148377373815,9.82833862305,9e-08,0.0,0.0,0.0,9e-08,0.0,0.0,0.0,9e-08
1560461789243847421,40845,1560461789239002816,base_link,-0.00818769621546,-0.00323795485054,-0.672650075631,-0.739908380001,1.0,0.0,0.0,0.0,1.0,0.0,0.0,0.0,1.0,0.00118116324302,-0.000360138714314,0.00466061895713,1.21846967915e-07,0.0,0.0,0.0,1.21846967915e-07,0.0,0.0,0.0,1.21846967915e-07,0.0620508417487,0.14572943747,9.80485439301,9e-08,0.0,0.0,0.0,9e-08,0.0,0.0,0.0,9e-08
1560461789263754474,40846,1560461789258999488,base_link,-0.0081860895315,-0.00324511965015,-0.672672890247,-0.739887672728,1.0,0.0,0.0,0.0,1.0,0.0,0.0,0.0,1.0,0.000131101871375,0.00123916915618,0.00572894467041,1.21846967915e-07,0.0,0.0,0.0,1.21846967915e-07,0.0,0.0,0.0,1.21846967915e-07,0.0746688842773,0.166063949466,9.78824996948,9e-08,0.0,0.0,0.0,9e-08,0.0,0.0,0.0,9e-08
1560461789282172900,40847,1560461789278999488,base_link,-0.00817926766894,-0.00324152070442,-0.672693447372,-0.739869054357,1.0,0.0,0.0,0.0,1.0,0.0,0.0,0.0,1.0,-0.000301936670439,-0.000252118567005,0.00542418379337,1.21846967915e-07,0.0,0.0,0.0,1.21846967915e-07,0.0,0.0,0.0,1.21846967915e-07,0.0456408560276,0.169857829809,9.79093837738,9e-08,0.0,0.0,0.0,9e-08,0.0,0.0,0.0,9e-08
1560461789303583834,40848,1560461789298999488,base_link,-0.00818901412766,-0.00323515653029,-0.672713248488,-0.739850854821,1.0,0.0,0.0,0.0,1.0,0.0,0.0,0.0,1.0,0.00182769051753,0.000179125694558,0.00559868337587,1.21846967915e-07,0.0,0.0,0.0,1.21846967915e-07,0.0,0.0,0.0,1.21846967915e-07,0.0509666502476,0.150368988514,9.79206562042,9e-08,0.0,0.0,0.0,9e-08,0.0,0.0,0.0,9e-08
1560461789322642579,40849,1560461789318999488,base_link,-0.0081928787961,-0.00323498234527,-0.672733083849,-0.739832873922,1.0,0.0,0.0,0.0,1.0,0.0,0.0,0.0,1.0,0.000641468679532,0.000487478449941,0.00412003137171,1.21846967915e-07,0.0,0.0,0.0,1.21846967915e-07,0.0,0.0,0.0,1.21846967915e-07,0.0855812877417,0.149494439363,9.82548904419,9e-08,0.0,0.0,0.0,9e-08,0.0,0.0,0.0,9e-08
1560461789342297657,40850,1560461789338999488,base_link,-0.00819157915851,-0.00323248086396,-0.67274836735,-0.739819023414,1.0,0.0,0.0,0.0,1.0,0.0,0.0,0.0,1.0,0.000120726370369,-0.00184793281369,0.0053078988567,1.21846967915e-07,0.0,0.0,0.0,1.21846967915e-07,0.0,0.0,0.0,1.21846967915e-07,0.0784459114075,0.154511153698,9.79577350616,9e-08,0.0,0.0,0.0,9e-08,0.0,0.0,0.0,9e-08
1560461789363839006,40851,1560461789358996672,base_link,-0.00818866905033,-0.00322798234642,-0.672763513874,-0.739805309883,1.0,0.0,0.0,0.0,1.0,0.0,0.0,0.0,1.0,-0.000750201288611,-0.00175113719888,0.00350777385756,1.21846967915e-07,0.0,0.0,0.0,1.21846967915e-07,0.0,0.0,0.0,1.21846967915e-07,0.0789260938764,0.140126973391,9.75530815125,9e-08,0.0,0.0,0.0,9e-08,0.0,0.0,0.0,9e-08
1560461789383792140,40852,1560461789378996672,base_link,-0.0082072935122,-0.0032292090502,-0.672779031816,-0.739790887758,1.0,0.0,0.0,0.0,1.0,0.0,0.0,0.0,1.0,0.00158507318702,-0.000370393274352,0.00272349198349,1.21846967915e-07,0.0,0.0,0.0,1.21846967915e-07,0.0,0.0,0.0,1.21846967915e-07,0.0677303448319,0.127891913056,9.80812072754,9e-08,0.0,0.0,0.0,9e-08,0.0,0.0,0.0,9e-08
1560461789402708226,40853,1560461789398996672,base_link,-0.00821448959267,-0.00322347493854,-0.672799422989,-0.739772351048,1.0,0.0,0.0,0.0,1.0,0.0,0.0,0.0,1.0,0.00129600451328,-0.0020669689402,0.00529438955709,1.21846967915e-07,0.0,0.0,0.0,1.21846967915e-07,0.0,0.0,0.0,1.21846967915e-07,0.0341444276273,0.131305918097,9.78775787354,9e-08,0.0,0.0,0.0,9e-08,0.0,0.0,0.0,9e-08
1560461789422724019,40854,1560461789418996672,base_link,-0.00821924263766,-0.00322446703584,-0.672816913931,-0.739756377392,1.0,0.0,0.0,0.0,1.0,0.0,0.0,0.0,1.0,3.16510704579e-06,-0.000888165668584,0.00412111496553,1.21846967915e-07,0.0,0.0,0.0,1.21846967915e-07,0.0,0.0,0.0,1.21846967915e-07,0.0597287677228,0.168889194727,9.79818439484,9e-08,0.0,0.0,0.0,9e-08,0.0,0.0,0.0,9e-08
1560461789442739202,40855,1560461789438996672,base_link,-0.00822086479742,-0.00322457948231,-0.672838695949,-0.739736618423,1.0,0.0,0.0,0.0,1.0,0.0,0.0,0.0,1.0,0.000877266051248,-0.000574443722144,0.00529339583591,1.21846967915e-07,0.0,0.0,0.0,1.21846967915e-07,0.0,0.0,0.0,1.21846967915e-07,0.0984259173274,0.116167493165,9.81936645508,9e-08,0.0,0.0,0.0,9e-08,0.0,0.0,0.0,9e-08
1560461789463060401,40856,1560461789458994368,base_link,-0.00821647181164,-0.00322041929202,-0.672854366674,-0.739722464984,1.0,0.0,0.0,0.0,1.0,0.0,0.0,0.0,1.0,-0.00190321228001,-4.0642102249e-05,0.00479146745056,1.21846967915e-07,0.0,0.0,0.0,1.21846967915e-07,0.0,0.0,0.0,1.21846967915e-07,0.0540833175182,0.152713567019,9.80284976959,9e-08,0.0,0.0,0.0,9e-08,0.0,0.0,0.0,9e-08
1560461789482324840,40857,1560461789478994368,base_link,-0.00821869456399,-0.00321510533175,-0.672874233645,-0.739704283887,1.0,0.0,0.0,0.0,1.0,0.0,0.0,0.0,1.0,-0.000844589958433,-0.00132032646798,0.00446349615231,1.21846967915e-07,0.0,0.0,0.0,1.21846967915e-07,0.0,0.0,0.0,1.21846967915e-07,0.0930011048913,0.18777628243,9.79687213898,9e-08,0.0,0.0,0.0,9e-08,0.0,0.0,0.0,9e-08
1560461789503798684,40858,1560461789498994368,base_link,-0.00822074774113,-0.00321594053082,-0.672893052213,-0.739687151193,1.0,0.0,0.0,0.0,1.0,0.0,0.0,0.0,1.0,-0.000956112227868,-4.22367593274e-05,0.00402472261339,1.21846967915e-07,0.0,0.0,0.0,1.21846967915e-07,0.0,0.0,0.0,1.21846967915e-07,0.056073077023,0.175297677517,9.75654697418,9e-08,0.0,0.0,0.0,9e-08,0.0,0.0,0.0,9e-08
1560461789522134796,40859,1560461789518994368,base_link,-0.00821158804557,-0.00322407816531,-0.672913388067,-0.739668754094,1.0,0.0,0.0,0.0,1.0,0.0,0.0,0.0,1.0,-0.00222370633855,0.00144095416181,0.00435067946091,1.21846967915e-07,0.0,0.0,0.0,1.21846967915e-07,0.0,0.0,0.0,1.21846967915e-07,0.0367292277515,0.169740065932,9.8078289032,9e-08,0.0,0.0,0.0,9e-08,0.0,0.0,0.0,9e-08
1560461789542705466,40860,1560461789538994368,base_link,-0.00820543197151,-0.00322059578195,-0.672933510553,-0.739650486069,1.0,0.0,0.0,0.0,1.0,0.0,0.0,0.0,1.0,-0.000736411486287,0.000597983947955,0.00518280081451,1.21846967915e-07,0.0,0.0,0.0,1.21846967915e-07,0.0,0.0,0.0,1.21846967915e-07,0.0503482222557,0.139014899731,9.82874965668,9e-08,0.0,0.0,0.0,9e-08,0.0,0.0,0.0,9e-08
1560461789563950663,40861,1560461789558992064,base_link,-0.00820139476441,-0.0032201667402,-0.672949979434,-0.739635534475,1.0,0.0,0.0,0.0,1.0,0.0,0.0,0.0,1.0,-0.00138927716762,-4.46329358965e-05,0.00423963414505,1.21846967915e-07,0.0,0.0,0.0,1.21846967915e-07,0.0,0.0,0.0,1.21846967915e-07,0.0530535690486,0.171802923083,9.81560230255,9e-08,0.0,0.0,0.0,9e-08,0.0,0.0,0.0,9e-08
1560461789583954218,40862,1560461789578992064,base_link,-0.00820814303461,-0.00321750144594,-0.672972620194,-0.73961483247,1.0,0.0,0.0,0.0,1.0,0.0,0.0,0.0,1.0,0.000561514520086,-0.000781369162723,0.00592059269547,1.21846967915e-07,0.0,0.0,0.0,1.21846967915e-07,0.0,0.0,0.0,1.21846967915e-07,0.0515607371926,0.191572099924,9.77939128876,9e-08,0.0,0.0,0.0,9e-08,0.0,0.0,0.0,9e-08
1560461789602158761,40863,1560461789598992064,base_link,-0.00820682446387,-0.00321233862164,-0.672996441066,-0.739593287528,1.0,0.0,0.0,0.0,1.0,0.0,0.0,0.0,1.0,0.00140733027365,-0.000250385142863,0.00568979699165,1.21846967915e-07,0.0,0.0,0.0,1.21846967915e-07,0.0,0.0,0.0,1.21846967915e-07,0.0362844131887,0.169352889061,9.81037521362,9e-08,0.0,0.0,0.0,9e-08,0.0,0.0,0.0,9e-08
1560461789623871647,40864,1560461789619992064,base_link,-0.00820406944292,-0.00322099288429,-0.673015612614,-0.739575801854,1.0,0.0,0.0,0.0,1.0,0.0,0.0,0.0,1.0,0.000869903131388,0.0015588356182,0.00537052145228,1.21846967915e-07,0.0,0.0,0.0,1.21846967915e-07,0.0,0.0,0.0,1.21846967915e-07,0.0486048571765,0.14914020896,9.76894187927,9e-08,0.0,0.0,0.0,9e-08,0.0,0.0,0.0,9e-08
1560461789642695495,40865,1560461789639992064,base_link,-0.008212367433,-0.0032269892613,-0.67303520563,-0.739557894711,1.0,0.0,0.0,0.0,1.0,0.0,0.0,0.0,1.0,0.000955871131737,0.00133967748843,0.0038776602596,1.21846967915e-07,0.0,0.0,0.0,1.21846967915e-07,0.0,0.0,0.0,1.21846967915e-07,0.0616104193032,0.169834375381,9.81705856323,9e-08,0.0,0.0,0.0,9e-08,0.0,0.0,0.0,9e-08
1560461789663484022,40866,1560461789659991808,base_link,-0.0082104229157,-0.00322549354209,-0.673050989625,-0.73954354371,1.0,0.0,0.0,0.0,1.0,0.0,0.0,0.0,1.0,-0.000406136387028,0.000387277104892,0.00538581889123,1.21846967915e-07,0.0,0.0,0.0,1.21846967915e-07,0.0,0.0,0.0,1.21846967915e-07,0.0377170778811,0.132523432374,9.77417564392,9e-08,0.0,0.0,0.0,9e-08,0.0,0.0,0.0,9e-08
1560461789682918234,40867,1560461789679991808,base_link,-0.00820898498377,-0.00323172040969,-0.67306906272,-0.739527072194,1.0,0.0,0.0,0.0,1.0,0.0,0.0,0.0,1.0,0.00129685807042,0.000279437866993,0.00546955643222,1.21846967915e-07,0.0,0.0,0.0,1.21846967915e-07,0.0,0.0,0.0,1.21846967915e-07,0.0617335103452,0.141041427851,9.75328731537,9e-08,0.0,0.0,0.0,9e-08,0.0,0.0,0.0,9e-08
1560461789704833848,40868,1560461789699991808,base_link,-0.00821312508845,-0.00323181606328,-0.67308850032,-0.739509236175,1.0,0.0,0.0,0.0,1.0,0.0,0.0,0.0,1.0,0.000858825165778,0.000385139952414,0.00472984462976,1.21846967915e-07,0.0,0.0,0.0,1.21846967915e-07,0.0,0.0,0.0,1.21846967915e-07,0.0755462124944,0.166039183736,9.82340717316,9e-08,0.0,0.0,0.0,9e-08,0.0,0.0,0.0,9e-08
1560461789723085104,40869,1560461789719991808,base_link,-0.00821073029135,-0.00324017595653,-0.673099284645,-0.739499547668,1.0,0.0,0.0,0.0,1.0,0.0,0.0,0.0,1.0,0.000831758254208,0.00155208189972,0.00312608201057,1.21846967915e-07,0.0,0.0,0.0,1.21846967915e-07,0.0,0.0,0.0,1.21846967915e-07,0.0652499049902,0.158444643021,9.80766582489,9e-08,0.0,0.0,0.0,9e-08,0.0,0.0,0.0,9e-08
1560461789743144613,40870,1560461789739991808,base_link,-0.00820670888931,-0.00324205182056,-0.67310957111,-0.739490188434,1.0,0.0,0.0,0.0,1.0,0.0,0.0,0.0,1.0,-0.000651713518891,-0.000377096235752,0.00304362364113,1.21846967915e-07,0.0,0.0,0.0,1.21846967915e-07,0.0,0.0,0.0,1.21846967915e-07,0.0646302253008,0.177757441998,9.77111244202,9e-08,0.0,0.0,0.0,9e-08,0.0,0.0,0.0,9e-08
1560461789763455313,40871,1560461789759988736,base_link,-0.00821399765993,-0.00324275251192,-0.673124277726,-0.739476661929,1.0,0.0,0.0,0.0,1.0,0.0,0.0,0.0,1.0,0.00363244302571,0.000702876830474,0.0053250757046,1.21846967915e-07,0.0,0.0,0.0,1.21846967915e-07,0.0,0.0,0.0,1.21846967915e-07,0.0453107580543,0.154926791787,9.77456665039,9e-08,0.0,0.0,0.0,9e-08,0.0,0.0,0.0,9e-08
1560461789784058988,40872,1560461789779988736,base_link,-0.00821007652129,-0.00323808227891,-0.673143804888,-0.739459073523,1.0,0.0,0.0,0.0,1.0,0.0,0.0,0.0,1.0,0.000321592553519,0.000805483665317,0.00408975500613,1.21846967915e-07,0.0,0.0,0.0,1.21846967915e-07,0.0,0.0,0.0,1.21846967915e-07,0.0501500554383,0.155781656504,9.78531837463,9e-08,0.0,0.0,0.0,9e-08,0.0,0.0,0.0,9e-08
1560461789803061533,40873,1560461789799988736,base_link,-0.00821812689863,-0.00323859298017,-0.67316313712,-0.73944134287,1.0,0.0,0.0,0.0,1.0,0.0,0.0,0.0,1.0,0.000229410594329,-0.000678210111801,0.00515609327704,1.21846967915e-07,0.0,0.0,0.0,1.21846967915e-07,0.0,0.0,0.0,1.21846967915e-07,0.075143918395,0.133041292429,9.8015871048,9e-08,0.0,0.0,0.0,9e-08,0.0,0.0,0.0,9e-08
1560461789824798641,40874,1560461789819988736,base_link,-0.00821607882521,-0.00323081556953,-0.673178483842,-0.739427429142,1.0,0.0,0.0,0.0,1.0,0.0,0.0,0.0,1.0,-0.00255005527288,0.00112616259139,0.00422668736428,1.21846967915e-07,0.0,0.0,0.0,1.21846967915e-07,0.0,0.0,0.0,1.21846967915e-07,0.062495701015,0.191431775689,9.78162288666,9e-08,0.0,0.0,0.0,9e-08,0.0,0.0,0.0,9e-08
1560461789843650798,40875,1560461789839988736,base_link,-0.00820360516905,-0.0032325681211,-0.673191554633,-0.739415538462,1.0,0.0,0.0,0.0,1.0,0.0,0.0,0.0,1.0,0.000115919901873,0.000487318029627,0.00461829686537,1.21846967915e-07,0.0,0.0,0.0,1.21846967915e-07,0.0,0.0,0.0,1.21846967915e-07,0.0740524828434,0.160094231367,9.78764724731,9e-08,0.0,0.0,0.0,9e-08,0.0,0.0,0.0,9e-08
1560461789863908831,40876,1560461789859984128,base_link,-0.00821057981393,-0.00323849436313,-0.673205431483,-0.739402926018,1.0,0.0,0.0,0.0,1.0,0.0,0.0,0.0,1.0,0.00299388403073,-0.000253773177974,0.00490536680445,1.21846967915e-07,0.0,0.0,0.0,1.21846967915e-07,0.0,0.0,0.0,1.21846967915e-07,0.0827150419354,0.147751778364,9.79853820801,9e-08,0.0,0.0,0.0,9e-08,0.0,0.0,0.0,9e-08
1560461789883715813,40877,1560461789879984128,base_link,-0.00820983631718,-0.00324285853759,-0.67322112855,-0.73938857765,1.0,0.0,0.0,0.0,1.0,0.0,0.0,0.0,1.0,-0.000309921597363,-0.000255451421253,0.00462452927604,1.21846967915e-07,0.0,0.0,0.0,1.21846967915e-07,0.0,0.0,0.0,1.21846967915e-07,0.0606126450002,0.15595266223,9.81919193268,9e-08,0.0,0.0,0.0,9e-08,0.0,0.0,0.0,9e-08
1560461789903464450,40878,1560461789899984128,base_link,-0.00821095024522,-0.0032347956479,-0.673238408758,-0.739372899022,1.0,0.0,0.0,0.0,1.0,0.0,0.0,0.0,1.0,-0.000724227342289,-0.000996353337541,0.00548369623721,1.21846967915e-07,0.0,0.0,0.0,1.21846967915e-07,0.0,0.0,0.0,1.21846967915e-07,0.0751236379147,0.13779117167,9.79968833923,9e-08,0.0,0.0,0.0,9e-08,0.0,0.0,0.0,9e-08
